{
"type": "FeatureCollection",
"name": "escuelas_publicas",
"crs": { "type": "name", "properties": { "name": "urn:ogc:def:crs:OGC:1.3:CRS84" } },
"features": [
{ "type": "Feature", "properties": { "nombre": "TELESECUNDARIA 63", "domicilio": "ADMON U HAB CAMPAÑA DEL EBANO Y C CELAYA S/N, UNIDAD HAB VICENTE GUERRERO, DELEGACION IZTAPALAPA, MEXICO DF.", "colonia": "VICENTE GUERRERO SUPER MANZANA 6 (U HAB)", "alcaldia": "IZTAPALAPA" }, "geometry": { "type": "Point", "coordinates": [ -99.054241999799999, 19.353163000089999 ] } },
{ "type": "Feature", "properties": { "nombre": "PREESCOLAR GENERAL CON SERVICIO ASISTENCIAL - VALENTIN ZAMORA OROZCO", "domicilio": "PLAYA FLAMINGOS NO 1, MILITAR MARTE, DELEGACION IZTACALCO, MEXICO DF.", "colonia": "MILITAR MARTE", "alcaldia": "IZTACALCO" }, "geometry": { "type": "Point", "coordinates": [ -99.125582631810005, 19.379224417980002 ] } },
{ "type": "Feature", "properties": { "nombre": "PREESCOLAR GENERAL - ESTADO DE ZACATECAS", "domicilio": "CANAL DE SAN JUAN Y SUR 14 C, AGRICOLA ORIENTAL, DELEGACION IZTACALCO, MEXICO DF.", "colonia": "AGRICOLA ORIENTAL VI", "alcaldia": "IZTACALCO" }, "geometry": { "type": "Point", "coordinates": [ -99.059336788790006, 19.392688973070001 ] } },
{ "type": "Feature", "properties": { "nombre": "PRIMARIA GENERAL - PROFRA. AMANDA PALAFOX Y BAZ", "domicilio": "MONTE ELBRUZ NO 15, LOS VOLCANES, DELEGACION TLALPAN, MEXICO DF.", "colonia": "LOS VOLCANES", "alcaldia": "TLALPAN" }, "geometry": { "type": "Point", "coordinates": [ -99.176747714819996, 19.269762128130001 ] } },
{ "type": "Feature", "properties": { "nombre": "PRIMARIA GENERAL - VALENTIN ZAMORA OROZCO", "domicilio": "RETORNO 33 Y 34 S/N, AVANTE, DELEGACION COYOACAN, MEXICO DF.", "colonia": "AVANTE", "alcaldia": "COYOACAN" }, "geometry": { "type": "Point", "coordinates": [ -99.130933191929003, 19.328474318559639 ] } },
{ "type": "Feature", "properties": { "nombre": "PRIMARIA GENERAL - VIDAL ALCOCER", "domicilio": "MAGISTERIO NACIONAL NO 102, TLALPAN, DELEGACION TLALPAN, MEXICO DF.", "colonia": "TLALPAN CENTRO", "alcaldia": "TLALPAN" }, "geometry": { "type": "Point", "coordinates": [ -99.166732999900006, 19.282791999868099 ] } },
{ "type": "Feature", "properties": { "nombre": "PREESCOLAR GENERAL CON SERVICIO ASISTENCIAL - MA. CRUZ MANJARREZ", "domicilio": "ANTONIO HGO Y CANDIDO AGUILAR, CONSTITUCION 1917, DELEGACION IZTAPALAPA, MEXICO DF.", "colonia": "CONSTITUCION DE 1917 II", "alcaldia": "IZTAPALAPA" }, "geometry": { "type": "Point", "coordinates": [ -99.058558233189999, 19.348476201050001 ] } },
{ "type": "Feature", "properties": { "nombre": "LACTANTE, MATERNAL Y PREESCOLAR - CENDI SEP NO 14 GIBRAN JALIL GIBRAN", "domicilio": "JOSEFA ORTIZ DE DOMINGUEZ S/N, LA GUADALUPITA, DELEGACION XOCHIMILCO, MEXICO DF.", "colonia": "LA GUADALUPITA (BARR)", "alcaldia": "XOCHIMILCO" }, "geometry": { "type": "Point", "coordinates": [ -99.101505000269995, 19.265049000259999 ] } },
{ "type": "Feature", "properties": { "nombre": "PREESCOLAR GENERAL - YOLILIZTLI", "domicilio": "AV. JUAREZ S/N ESQ. ACUEXCOMAC, PUEBLO SAN LUIS TLAXIALTEMALCO, DELEGACION XOCHIMILCO, MEXICO DF.", "colonia": "SAN LUIS TLAXIALTEMALCO (PBLO)", "alcaldia": "XOCHIMILCO" }, "geometry": { "type": "Point", "coordinates": [ -99.033982734039995, 19.258815218220001 ] } },
{ "type": "Feature", "properties": { "nombre": "PRIMARIA GENERAL - CHICHEN ITZA", "domicilio": "AV 5 DE MAYO S/N, SANTIAGO TEPALCATLAPAN, DELEGACION XOCHIMILCO, MEXICO DF.", "colonia": "SANTIAGO TEPALCATLALPAN (PBLO)", "alcaldia": "XOCHIMILCO" }, "geometry": { "type": "Point", "coordinates": [ -99.126041000079994, 19.250745999949999 ] } },
{ "type": "Feature", "properties": { "nombre": "PREESCOLAR GENERAL - COCONALLI", "domicilio": "C. PINO SUR S/N, PUEBLO SAN MATEO XALPA, DELEGACION XOCHIMILCO, MEXICO DF.", "colonia": "GUADALUPE", "alcaldia": "XOCHIMILCO" }, "geometry": { "type": "Point", "coordinates": [ -99.121495999909996, 19.223587999824002 ] } },
{ "type": "Feature", "properties": { "nombre": "ESCUELA SECUNDARIA TECNICA 33", "domicilio": "ORIENTE 112 SUR 183, GABRIEL RAMOS MILLAN, DELEGACION IZTACALCO, MEXICO DF.", "colonia": "CUCHILLA RAMOS MILLAN", "alcaldia": "IZTACALCO" }, "geometry": { "type": "Point", "coordinates": [ -99.091333243080001, 19.389263982039999 ] } },
{ "type": "Feature", "properties": { "nombre": "PRIMARIA GENERAL - ANAHUAXOCHITL", "domicilio": "PABLO L SIDAR ENTRE 35 Y 37 NTE, MOCTEZUMA 2A SECCION, DELEGACION VENUSTIANO CARRANZA, MEXICO DF.", "colonia": "MOCTEZUMA 2A SECCION I", "alcaldia": "VENUSTIANO CARRANZA" }, "geometry": { "type": "Point", "coordinates": [ -99.095165837099998, 19.437561045673 ] } },
{ "type": "Feature", "properties": { "nombre": "PRIMARIA GENERAL - PRESIDENTE VICENTE ROCAFUERTE", "domicilio": "COXCOX S/N Y RIO CHURUBUSCO, ARENAL 2A SECC, DELEGACION VENUSTIANO CARRANZA, MEXICO DF.", "colonia": "EL ARENAL 2A SECCION", "alcaldia": "VENUSTIANO CARRANZA" }, "geometry": { "type": "Point", "coordinates": [ -99.056344060279997, 19.42295455935 ] } },
{ "type": "Feature", "properties": { "nombre": "PREESCOLAR GENERAL - 10 DE ABRIL", "domicilio": "CERRADA LEANDRO VALLE S/N, SAN LORENZO ACOPILCO, DELEGACION CUAJIMALPA DE MORELOS, MEXICO DF.", "colonia": "SAN LORENZO ACOPILCO (PBLO)", "alcaldia": "CUAJIMALPA DE MORELOS" }, "geometry": { "type": "Point", "coordinates": [ -99.327215999944841, 19.328958000245631 ] } },
{ "type": "Feature", "properties": { "nombre": "PRIMARIA GENERAL - TEUHTLI", "domicilio": "AV INDEPENDENCIA NO 15, PUEBLO SAN FRANCISCO TECOXPA, DELEGACION MILPA ALTA, MEXICO DF.", "colonia": "SAN FRANCISCO TECOXPA (PBLO)", "alcaldia": "MILPA ALTA" }, "geometry": { "type": "Point", "coordinates": [ -99.005713999790004, 19.195770999659999 ] } },
{ "type": "Feature", "properties": { "nombre": "PRIMARIA GENERAL - PROFRA. GUADALUPE MAYOL DE GONZALEZ", "domicilio": "SARASATE NO 94 BIS, PERALVILLO, DELEGACION CUAUHTEMOC, MEXICO DF.", "colonia": "MORELOS I", "alcaldia": "CUAUHTEMOC" }, "geometry": { "type": "Point", "coordinates": [ -99.131867999932439, 19.450116999769978 ] } },
{ "type": "Feature", "properties": { "nombre": "PREESCOLAR GENERAL - ENRIQUE TIERNO GALVAN", "domicilio": "FRANCISCO ESPEJEL NO 96, MOCTEZUMA 1A SECCION, DELEGACION VENUSTIANO CARRANZA, MEXICO DF.", "colonia": "MOCTEZUMA 1A SECCION", "alcaldia": "VENUSTIANO CARRANZA" }, "geometry": { "type": "Point", "coordinates": [ -99.110047000029994, 19.428204999870001 ] } },
{ "type": "Feature", "properties": { "nombre": "PREESCOLAR GENERAL - ITZCALLI", "domicilio": "GUADALAJARA S/N, MIGUEL HIDALGO, DELEGACION TLAHUAC, MEXICO DF.", "colonia": "MIGUEL HIDALGO", "alcaldia": "TLALPAN" }, "geometry": { "type": "Point", "coordinates": [ -99.18545357603, 19.286331448670001 ] } },
{ "type": "Feature", "properties": { "nombre": "PREESCOLAR GENERAL - LEON FELIPE", "domicilio": "RAFAEL CURIEL Y ALBERTO GONZALEZ, CONSTITUCION 1917, DELEGACION IZTAPALAPA, MEXICO DF.", "colonia": "CONSTITUCION DE 1917 I", "alcaldia": "IZTAPALAPA" }, "geometry": { "type": "Point", "coordinates": [ -99.067037688479999, 19.349920317150001 ] } },
{ "type": "Feature", "properties": { "nombre": "PREESCOLAR GENERAL - MEXIKATZIN", "domicilio": "AV.SAN ISIDRO ALTO LERMA NO 24 M-14 L-1COLONIA, CORPUS CHRISTI, DELEGACION ALVARO OBREGON, MEXICO DF.", "colonia": "CORPUS CHRISTY", "alcaldia": "ALVARO OBREGON" }, "geometry": { "type": "Point", "coordinates": [ -99.246606000166082, 19.359253000000692 ] } },
{ "type": "Feature", "properties": { "nombre": "PRIMARIA GENERAL - NIÑOS HEROES", "domicilio": "CALLE SANTA RITA NO 230, LOMAS DEL PADRE, DELEGACION CUAJIMALPA DE MORELOS, MEXICO DF.", "colonia": "LOMA DEL PADRE", "alcaldia": "CUAJIMALPA DE MORELOS" }, "geometry": { "type": "Point", "coordinates": [ -99.30897399992044, 19.351991999777589 ] } },
{ "type": "Feature", "properties": { "nombre": "SECUNDARIA GENERAL - JOSE GUADALUPE NAJERA JIMENEZ", "domicilio": "CERRO MERCADO Y CERRO SAN FRANCISCO NO 263, CAMPESTRE CHURUBUSCO, DELEGACION COYOACAN, MEXICO DF.", "colonia": "CAMPESTRE CHURUBUSCO", "alcaldia": "COYOACAN" }, "geometry": { "type": "Point", "coordinates": [ -99.132063000193639, 19.344654000224491 ] } },
{ "type": "Feature", "properties": { "nombre": "PRIMARIA GENERAL - PRESIDENTE PLUTARCO ELIAS CALLES", "domicilio": "AV PLUTARCO ELIAS CALLES NO 972, REFORMA IXTACCIHUATL, DELEGACION IZTACALCO, MEXICO DF.", "colonia": "REFORMA IZTACCIHUATL NORTE", "alcaldia": "IZTACALCO" }, "geometry": { "type": "Point", "coordinates": [ -99.132354999699999, 19.39029699996 ] } },
{ "type": "Feature", "properties": { "nombre": "PRIMARIA GENERAL - ANTONIO GARCIA CUBAS", "domicilio": "CALZ DE LA VIGA NO 865, CONJUNTO HABITACIONAL SANTIAGO, DELEGACION IZTACALCO, MEXICO DF.", "colonia": "SANTIAGO SUR", "alcaldia": "IZTACALCO" }, "geometry": { "type": "Point", "coordinates": [ -99.122160999789998, 19.389877000390001 ] } },
{ "type": "Feature", "properties": { "nombre": "PREESCOLAR GENERAL - AMERICA LATINA", "domicilio": "ORIENTE 233 Y CDA DE ORIENTE 233, AGRICOLA ORIENTAL, DELEGACION IZTACALCO, MEXICO DF.", "colonia": "AGRICOLA ORIENTAL I", "alcaldia": "IZTACALCO" }, "geometry": { "type": "Point", "coordinates": [ -99.077856088440001, 19.397639213289999 ] } },
{ "type": "Feature", "properties": { "nombre": "PRIMARIA GENERAL - DR. SALVADOR ALLENDE", "domicilio": "BLVD DEL TEMOLUCO Y LA ESCOLLERA, CONJ HAB ACUEDUCTO DE GUADALUPE, DELEGACION GUSTAVO A. MADERO, MEXICO DF.", "colonia": "ACUEDUCTO DE GUADALUPE (U HAB)", "alcaldia": "GUSTAVO A. MADERO" }, "geometry": { "type": "Point", "coordinates": [ -99.148309000080005, 19.524836000400001 ] } },
{ "type": "Feature", "properties": { "nombre": "PRIMARIA GENERAL - REGENTE URUCHURTU", "domicilio": "CALLE 1 NO 26, SAN JOSE DE LA ESCALERA, DELEGACION GUSTAVO A. MADERO, MEXICO DF.", "colonia": "SAN JOSE DE LA ESCALERA", "alcaldia": "GUSTAVO A. MADERO" }, "geometry": { "type": "Point", "coordinates": [ -99.164107509070007, 19.52320046913 ] } },
{ "type": "Feature", "properties": { "nombre": "PRIMARIA GENERAL - ANA MARIA BERLANGA", "domicilio": "CALLE 507 PLAZA 2, U SAN JUAN DE ARAGON, DELEGACION GUSTAVO A. MADERO, MEXICO DF.", "colonia": "DM NACIONAL", "alcaldia": "GUSTAVO A. MADERO" }, "geometry": { "type": "Point", "coordinates": [ -99.096042999960005, 19.475658000100001 ] } },
{ "type": "Feature", "properties": { "nombre": "ESCUELA SECUNDARIA TECNICA 44", "domicilio": "FRANCISCO DEL PASO Y TRONCOSO Y CALLE DEL ROSAL S/N, PUEBLO MAGDALENA ATLAZOLPA, DELEGACION IZTAPALAPA, MEXICO DF.", "colonia": "LA NUEVA ROSITA", "alcaldia": "IZTAPALAPA" }, "geometry": { "type": "Point", "coordinates": [ -99.108491371379998, 19.37742176395 ] } },
{ "type": "Feature", "properties": { "nombre": "PREESCOLAR GENERAL - PROFR. BALDOMERO SAMANO MUÐOZ", "domicilio": "ARQUEOLOGOS 106 Y RIO CHURUBUSCO, EL RETONO, DELEGACION IZTAPALAPA, MEXICO DF.", "colonia": "EL RETOO", "alcaldia": "IZTAPALAPA" }, "geometry": { "type": "Point", "coordinates": [ -99.123349000220003, 19.372474000339999 ] } },
{ "type": "Feature", "properties": { "nombre": "ESCUELA SECUNDARIA TECNICA 115", "domicilio": "AV. DEL PARAISO ESQ. CAPULIN, SAN MIGUEL TEOTONGO, DELEGACION IZTAPALAPA, MEXICO DF.", "colonia": "SAN MIGUEL TEOTONGO III", "alcaldia": "IZTAPALAPA" }, "geometry": { "type": "Point", "coordinates": [ -98.992576477629996, 19.339323626439999 ] } },
{ "type": "Feature", "properties": { "nombre": "PRIMARIA GENERAL - PROFR. JOSE DAVILA", "domicilio": "AV.NAUTLA NO.69, CASA BLANCA, DELEGACION IZTAPALAPA, MEXICO DF.", "colonia": "CASA BLANCA", "alcaldia": "IZTAPALAPA" }, "geometry": { "type": "Point", "coordinates": [ -99.068450684569996, 19.33254531399 ] } },
{ "type": "Feature", "properties": { "nombre": "INTERVENCION TEMPRANA, PREESCOLAR, PRIMARIA Y CAPACITACION LABORAL ESPECIAL - JUAN HUARTE DE SAN JUAN", "domicilio": "CAMINO CERRO DE LA ESTRELLA S/N EDIF 5, EL SANTUARIO, DELEGACION IZTAPALAPA, MEXICO DF.", "colonia": "SANTA MARIA DEL MONTE", "alcaldia": "IZTAPALAPA" }, "geometry": { "type": "Point", "coordinates": [ -99.09052913971, 19.35461755431 ] } },
{ "type": "Feature", "properties": { "nombre": "PRIMARIA GENERAL - JULIO CORTAZAR", "domicilio": "AV.JUAN CRISOSTOMO BONILLA S/N, UNIDAD HAB IGNACIO ZARAGOZA, DELEGACION IZTAPALAPA, MEXICO DF.", "colonia": "JUAN ESCUTIA II", "alcaldia": "IZTAPALAPA" }, "geometry": { "type": "Point", "coordinates": [ -99.036505999870002, 19.38719899973 ] } },
{ "type": "Feature", "properties": { "nombre": "PREESCOLAR GENERAL - CARLOS CHAVEZ", "domicilio": "CIRCUITO RIO MIXTECO S/N, CONJ HAB REAL DEL MORAL, DELEGACION IZTAPALAPA, MEXICO DF.", "colonia": "PASEOS DE CHURUBUSCO", "alcaldia": "IZTAPALAPA" }, "geometry": { "type": "Point", "coordinates": [ -99.081272000019993, 19.38593999998 ] } },
{ "type": "Feature", "properties": { "nombre": "PREESCOLAR GENERAL - TLAMATINI", "domicilio": "FELIPE ANGELES S/N, SAN MIGUEL TEOTONGO, DELEGACION IZTAPALAPA, MEXICO DF.", "colonia": "SAN MIGUEL TEOTONGO III", "alcaldia": "IZTAPALAPA" }, "geometry": { "type": "Point", "coordinates": [ -98.990292999990004, 19.339825000071201 ] } },
{ "type": "Feature", "properties": { "nombre": "SECUNDARIA GENERAL - UNION DE REPUBLICAS SOCIALISTAS SOVIETICAS", "domicilio": "CIENFUEGOS NO 1069, LINDAVISTA, DELEGACION GUSTAVO A. MADERO, MEXICO DF.", "colonia": "RESIDENCIAL ZACATENCO", "alcaldia": "GUSTAVO A. MADERO" }, "geometry": { "type": "Point", "coordinates": [ -99.122765, 19.501021000040001 ] } },
{ "type": "Feature", "properties": { "nombre": "SECUNDARIA GENERAL - GUSTAVO A MADERO", "domicilio": "PUERTO MAZATLAN Y MOCTEZUMA, LA PASTORA, DELEGACION GUSTAVO A. MADERO, MEXICO DF.", "colonia": "LA PASTORA", "alcaldia": "GUSTAVO A. MADERO" }, "geometry": { "type": "Point", "coordinates": [ -99.139831094550004, 19.52368062239 ] } },
{ "type": "Feature", "properties": { "nombre": "PRIMARIA GENERAL - LUIS GONZALEZ OBREGON", "domicilio": "ENRIQUE REXAMEN 8, NARVARTE, DELEGACION BENITO JUAREZ, MEXICO DF..", "colonia": "PIEDAD NARVARTE", "alcaldia": "BENITO JUAREZ" }, "geometry": { "type": "Point", "coordinates": [ -99.158452000039162, 19.40268200007878 ] } },
{ "type": "Feature", "properties": { "nombre": "INTERVENCION TEMPRANA, PREESCOLAR, PRIMARIA Y CAPACITACION LABORAL ESPECIAL - CENTRO DE ATENCION MULTIPLE 2", "domicilio": "CASTILLA NO  148, ALAMOS, DELEGACION BENITO JUAREZ, MEXICO DF..", "colonia": "ALAMOS II", "alcaldia": "BENITO JUAREZ" }, "geometry": { "type": "Point", "coordinates": [ -99.142742073732677, 19.397658910193002 ] } },
{ "type": "Feature", "properties": { "nombre": "PREESCOLAR GENERAL - TLAHUI OLLIN", "domicilio": "EL ROBLE S/N ESQ. AV. NUEVO LEON, BARRIO CALTONGO, DELEGACION XOCHIMILCO, MEXICO DF.", "colonia": "CALTONGO (BARR)", "alcaldia": "XOCHIMILCO" }, "geometry": { "type": "Point", "coordinates": [ -99.080042295479998, 19.258037707570001 ] } },
{ "type": "Feature", "properties": { "nombre": "PRIMARIA GENERAL - CARLOS GARCIA", "domicilio": "NARCISO MENDOZA NO 19, SANTA MARIA NATIVITAS, DELEGACION XOCHIMILCO, MEXICO DF.", "colonia": "SANTA MARIA NATIVITAS (PBLO)", "alcaldia": "XOCHIMILCO" }, "geometry": { "type": "Point", "coordinates": [ -99.092222000060005, 19.24381699968 ] } },
{ "type": "Feature", "properties": { "nombre": "PRIMARIA GENERAL - RUMANIA", "domicilio": "AV PANAMERICANA S/N, PEDREGAL DE CARRASCO, DELEGACION COYOACAN, MEXICO DF.", "colonia": "VILLA PANAMERICANA 3ERA. SECCIN (U HAB)", "alcaldia": "COYOACAN" }, "geometry": { "type": "Point", "coordinates": [ -99.17010499995412, 19.30961099961738 ] } },
{ "type": "Feature", "properties": { "nombre": "PREESCOLAR GENERAL - HEROES DEL MOLINO DEL REY", "domicilio": "JULIAN DE LOS REYES NO 14, JUAN ESCUTIA, DELEGACION IZTAPALAPA, MEXICO DF.", "colonia": "JUAN ESCUTIA I", "alcaldia": "IZTAPALAPA" }, "geometry": { "type": "Point", "coordinates": [ -99.055576000019997, 19.398599000400001 ] } },
{ "type": "Feature", "properties": { "nombre": "PREESCOLAR GENERAL - REPUBLICA DE CHECOSLOVAQUIA", "domicilio": "MANUEL CAÐAS Y VILLA FEDERAL S/N, DESARROLLO URBANO QUETZALCOATL, DELEGACION IZTAPALAPA, MEXICO DF.", "colonia": "DESARROLLO URBANO QUETZALCOATL  II", "alcaldia": "IZTAPALAPA" }, "geometry": { "type": "Point", "coordinates": [ -99.044321403189997, 19.327175703285 ] } },
{ "type": "Feature", "properties": { "nombre": "PRIMARIA GENERAL - NICOLAS GARCIA DE SAN VICENTE", "domicilio": "CHILPANCINGO SUR NO.60, CONJ POPULAR HAB ERMITA ZARAGOZA, DELEGACION IZTAPALAPA, MEXICO DF.", "colonia": "ERMITA ZARAGOZA (U HAB) I", "alcaldia": "IZTAPALAPA" }, "geometry": { "type": "Point", "coordinates": [ -98.997736000100005, 19.363807999860001 ] } },
{ "type": "Feature", "properties": { "nombre": "PRIMARIA GENERAL - ALBERTO MASFERRER", "domicilio": "SUR 103 A NO 604 Y AGUSTIN YAÐEZ, SECTOR POPULAR, DELEGACION IZTAPALAPA, MEXICO DF.", "colonia": "SECTOR POPULAR", "alcaldia": "IZTAPALAPA" }, "geometry": { "type": "Point", "coordinates": [ -99.118481, 19.36590399984 ] } },
{ "type": "Feature", "properties": { "nombre": "SECUNDARIA GENERAL - JOSE NATIVIDAD MACIAS", "domicilio": "LIC NATIVIDAD Y FRANCISCO ANDRADE, SAN MIGUEL, DELEGACION IZTAPALAPA, MEXICO DF.", "colonia": "CONSTITUCION DE 1917 I", "alcaldia": "IZTAPALAPA" }, "geometry": { "type": "Point", "coordinates": [ -99.067260605919998, 19.35115745365 ] } },
{ "type": "Feature", "properties": { "nombre": "PREESCOLAR GENERAL - DR. ALFONSO ORTIZ TIRADO", "domicilio": "PLAZA GUARDIOLA Y PZA BUENAVISTA, DOCTOR ALFONSO ORTIZ TIRADO, DELEGACION IZTAPALAPA, MEXICO DF.", "colonia": "DR ALFONSO ORTIZ TIRADO", "alcaldia": "IZTAPALAPA" }, "geometry": { "type": "Point", "coordinates": [ -99.076653133820002, 19.386989325950001 ] } },
{ "type": "Feature", "properties": { "nombre": "PREESCOLAR GENERAL - ITZURI", "domicilio": "MATAMOROS Y FRANCISCO JAVIER MINA S/N, SANTA CRUZ MEYEHUALCO, DELEGACION IZTAPALAPA, MEXICO DF.", "colonia": "SANTA CRUZ MEYEHUALCO (PBLO)", "alcaldia": "IZTAPALAPA" }, "geometry": { "type": "Point", "coordinates": [ -99.036350069189993, 19.341637016330001 ] } },
{ "type": "Feature", "properties": { "nombre": "PRIMARIA GENERAL - FRANCISCO MARQUEZ", "domicilio": "AV.YUCATAN NO.30, PUEBLO SN SEBASTIAN TECOLOXTITLA, DELEGACION IZTAPALAPA, MEXICO DF.", "colonia": "SAN SEBASTIAN TECOLOXTITLAN (PBLO)", "alcaldia": "IZTAPALAPA" }, "geometry": { "type": "Point", "coordinates": [ -99.018886000169999, 19.360339000269999 ] } },
{ "type": "Feature", "properties": { "nombre": "PRIMARIA GENERAL - PROFR. ANGEL SALAS BONILLA", "domicilio": "VERGEL NO.6, SANTA CRUZ MEYEHUALCO, DELEGACION IZTAPALAPA, MEXICO DF.", "colonia": "LAS PEAS II", "alcaldia": "IZTAPALAPA" }, "geometry": { "type": "Point", "coordinates": [ -99.050081999889997, 19.339726000039999 ] } },
{ "type": "Feature", "properties": { "nombre": "PRIMARIA GENERAL - PLAN DE SAN LUIS", "domicilio": "AV.JUAREZ NO.4, LOS REYES CULHUACAN, DELEGACION IZTAPALAPA, MEXICO DF.", "colonia": "SAN SIMON CULHUACAN (BARR)", "alcaldia": "IZTAPALAPA" }, "geometry": { "type": "Point", "coordinates": [ -99.111657718070006, 19.33524135423 ] } },
{ "type": "Feature", "properties": { "nombre": "SECUNDARIA GENERAL - RAMON BETETA", "domicilio": "OAXACA S/N ESQ YUCATAN, PUEBLO SN SEBASTIAN TECOLOXTITLA, DELEGACION IZTAPALAPA, MEXICO DF.", "colonia": "SAN SEBASTIAN TECOLOXTITLAN (PBLO)", "alcaldia": "IZTAPALAPA" }, "geometry": { "type": "Point", "coordinates": [ -99.015900346570007, 19.360620809370001 ] } },
{ "type": "Feature", "properties": { "nombre": "SECUNDARIA GENERAL - JAPON", "domicilio": "VERGEL Y 5 DE MAYO, SANTA CRUZ MEYEHUALCO, DELEGACION IZTAPALAPA, MEXICO DF.", "colonia": "LAS PEAS II", "alcaldia": "IZTAPALAPA" }, "geometry": { "type": "Point", "coordinates": [ -99.04888595864, 19.340676354879999 ] } },
{ "type": "Feature", "properties": { "nombre": "PRIMARIA GENERAL - HERMANOS FLORES MAGON", "domicilio": "BENITO JUAREZ NO.1, IXTLAHUACAN, DELEGACION IZTAPALAPA, MEXICO DF.", "colonia": "IXTLAHUACAN", "alcaldia": "IZTAPALAPA" }, "geometry": { "type": "Point", "coordinates": [ -98.998233999809997, 19.34249699994 ] } },
{ "type": "Feature", "properties": { "nombre": "SECUNDARIA GENERAL - BERTRAND RUSSELL", "domicilio": "CAMPOS IDOLOS Y FORTUNA NACIONAL, AMPLIACION PETROLERA, DELEGACION AZCAPOTZALCO, MEXICO DF.", "colonia": "SAN ANTONIO (FRACC)", "alcaldia": "AZCAPOTZALCO" }, "geometry": { "type": "Point", "coordinates": [ -99.206535306503994, 19.48097346812985 ] } },
{ "type": "Feature", "properties": { "nombre": "SECUNDARIA GENERAL - NETZAHUALCOYOTL", "domicilio": "AV AQUILES SERDAN Y 1RA PRIV AQUILES SERDAN, SANTO DOMINGO, DELEGACION AZCAPOTZALCO, MEXICO DF.", "colonia": "ANGEL ZIMBRON", "alcaldia": "AZCAPOTZALCO" }, "geometry": { "type": "Point", "coordinates": [ -99.189328236900366, 19.47066926280063 ] } },
{ "type": "Feature", "properties": { "nombre": "ESCUELA SECUNDARIA TECNICA 88", "domicilio": "CALLE PUERTO SAN BLAS No. 59 , COLONIA PILOTO ADOLFO LOPEZ MATEOS, DELEGACION ALVARO OBREGON, MEXICO DF.", "colonia": "PILOTO (ADOLFO LOPEZ MATEOS)", "alcaldia": "ALVARO OBREGON" }, "geometry": { "type": "Point", "coordinates": [ -99.231107999998301, 19.372618999927639 ] } },
{ "type": "Feature", "properties": { "nombre": "PRIMARIA GENERAL - JOSE DE JESUS IBARRA Y ROBLES", "domicilio": "POLVORA S/N Y AV AUSTRIACOS, COLONIA EL PARAISO, DELEGACION ALVARO OBREGON, MEXICO DF.", "colonia": "EL PARAISO", "alcaldia": "ALVARO OBREGON" }, "geometry": { "type": "Point", "coordinates": [ -99.212711903166635, 19.392154040046918 ] } },
{ "type": "Feature", "properties": { "nombre": "SECUNDARIA GENERAL - REPUBLICA MEXICANA", "domicilio": "ABRAHAM GONZALEZ NO 47, JUAREZ, DELEGACION CUAUHTEMOC, MEXICO DF.", "colonia": "JUAREZ", "alcaldia": "CUAUHTEMOC" }, "geometry": { "type": "Point", "coordinates": [ -99.153759999824459, 19.42965200022882 ] } },
{ "type": "Feature", "properties": { "nombre": "PRIMARIA GENERAL - DR. SAMUEL RAMOS", "domicilio": null, "colonia": "ALFONSO XIII", "alcaldia": "ALVARO OBREGON" }, "geometry": { "type": "Point", "coordinates": [ -99.198870457167914, 19.374684765823019 ] } },
{ "type": "Feature", "properties": { "nombre": "PRIMARIA GENERAL - CIRILO CELIS PASTRANA", "domicilio": "CANARIO Y FELIPE ANGELES S/N, COLONIA BELLA VISTA, DELEGACION ALVARO OBREGON, MEXICO DF.", "colonia": "BELLA VISTA", "alcaldia": "ALVARO OBREGON" }, "geometry": { "type": "Point", "coordinates": [ -99.193457951756713, 19.394841761585301 ] } },
{ "type": "Feature", "properties": { "nombre": "PREESCOLAR GENERAL - REPUBLICA DE COLOMBIA", "domicilio": "GOUNOD Y LAZARO CARDENAS, EX-HIPODROMO DE PERALVILLO, DELEGACION CUAUHTEMOC, MEXICO DF.", "colonia": "EX HIPODROMO DE PERALVILLO", "alcaldia": "CUAUHTEMOC" }, "geometry": { "type": "Point", "coordinates": [ -99.137514555928078, 19.45861131935035 ] } },
{ "type": "Feature", "properties": { "nombre": "PRIMARIA GENERAL - RODOLFO MENENDEZ", "domicilio": "SAN ILDEFONSO NO 59, CENTRO, DELEGACION CUAUHTEMOC, MEXICO DF.", "colonia": "CENTRO III", "alcaldia": "CUAUHTEMOC" }, "geometry": { "type": "Point", "coordinates": [ -99.128890000073085, 19.436218999905989 ] } },
{ "type": "Feature", "properties": { "nombre": "PRIMARIA GENERAL - IGNACIO M. ALTAMIRANO", "domicilio": "HEROES NO 27, GUERRERO, DELEGACION CUAUHTEMOC, MEXICO DF.", "colonia": "GUERRERO III", "alcaldia": "CUAUHTEMOC" }, "geometry": { "type": "Point", "coordinates": [ -99.147245999920102, 19.439208999841249 ] } },
{ "type": "Feature", "properties": { "nombre": "ESCUELA SECUNDARIA TECNICA 42", "domicilio": "GOROSTIZA ESQ TENOCHTITLAN, MORELOS, DELEGACION CUAUHTEMOC, MEXICO DF.", "colonia": "MORELOS I", "alcaldia": "CUAUHTEMOC" }, "geometry": { "type": "Point", "coordinates": [ -99.128560000106447, 19.451893999470411 ] } },
{ "type": "Feature", "properties": { "nombre": "PRIMARIA GENERAL - ROBERTO OWEN", "domicilio": "TRIQUIS Y TOTONACAS S/N, TEZOZOMOC, DELEGACION AZCAPOTZALCO, MEXICO DF.", "colonia": "TEZOZOMOC", "alcaldia": "AZCAPOTZALCO" }, "geometry": { "type": "Point", "coordinates": [ -99.199818000008875, 19.490711000048719 ] } },
{ "type": "Feature", "properties": { "nombre": "PRIMARIA GENERAL - MAESTRO CARLOS GONZALEZ PEÑA", "domicilio": "OTE 91 NO 3132 Y NTE 64-A, MARTIRES DE RIO BLANCO, DELEGACION GUSTAVO A. MADERO, MEXICO DF.", "colonia": "MARTIRES DE RIO BLANCO", "alcaldia": "GUSTAVO A. MADERO" }, "geometry": { "type": "Point", "coordinates": [ -99.111824686679995, 19.460546002369998 ] } },
{ "type": "Feature", "properties": { "nombre": "PRIMARIA GENERAL - PROFR. TEODORO MONTIEL", "domicilio": "CUAUHTEMOC NO 20, ARAGON, DELEGACION GUSTAVO A. MADERO, MEXICO DF.", "colonia": "ARAGON LA VILLA (ARAGON)", "alcaldia": "GUSTAVO A. MADERO" }, "geometry": { "type": "Point", "coordinates": [ -99.116579999940001, 19.480931000209999 ] } },
{ "type": "Feature", "properties": { "nombre": "PREESCOLAR GENERAL - MACUIZOCHITL", "domicilio": "BATALLA DE LOMA ALTA ESQ GUERRA, LEYES DE REFORMA, DELEGACION IZTAPALAPA, MEXICO DF.", "colonia": "LEYES DE REFORMA 3A SECCION I", "alcaldia": "IZTAPALAPA" }, "geometry": { "type": "Point", "coordinates": [ -99.069724381900002, 19.379031775769999 ] } },
{ "type": "Feature", "properties": { "nombre": "PRIMARIA GENERAL - PROFRA. CARMEN RAMOS DEL RIO", "domicilio": "AV.REVOLUCION NO.81, REFORMA EDUCATIVA, DELEGACION IZTAPALAPA, MEXICO DF.", "colonia": "TEPALCATES II", "alcaldia": "IZTAPALAPA" }, "geometry": { "type": "Point", "coordinates": [ -99.0554820001, 19.38845500023 ] } },
{ "type": "Feature", "properties": { "nombre": "PRIMARIA GENERAL - FELIPE CARRILLO PUERTO", "domicilio": "SIEMPREVIVA S/N, LOMAS SAN LORENZO, DELEGACION IZTAPALAPA, MEXICO DF.", "colonia": "LOMAS DE SAN LORENZO II", "alcaldia": "IZTAPALAPA" }, "geometry": { "type": "Point", "coordinates": [ -99.063279999990002, 19.321121999759999 ] } },
{ "type": "Feature", "properties": { "nombre": "INTERVENCION TEMPRANA, PREESCOLAR, PRIMARIA Y CAPACITACION LABORAL ESPECIAL - CENTRO DE ATENCION MULTIPLE 5", "domicilio": "FRAY PEDRO DE GANTE NO  43, VASCO DE QUIROGA, DELEGACION GUSTAVO A. MADERO, MEXICO DF.", "colonia": "VASCO DE QUIROGA", "alcaldia": "GUSTAVO A. MADERO" }, "geometry": { "type": "Point", "coordinates": [ -99.094438000020006, 19.493922000280001 ] } },
{ "type": "Feature", "properties": { "nombre": "ESCUELA SECUNDARIA TECNICA 104", "domicilio": "UNIDAD HABITACIONAL EL ARBOLITO DOS, UNIDAD HAB EL ARBOLILLO  2, DELEGACION GUSTAVO A. MADERO, MEXICO DF.", "colonia": "SAN JOSE DE LA ESCALERA", "alcaldia": "GUSTAVO A. MADERO" }, "geometry": { "type": "Point", "coordinates": [ -99.163738791270006, 19.525440335359999 ] } },
{ "type": "Feature", "properties": { "nombre": "PRIMARIA GENERAL - PROFR. MELITON GUZMAN ROMERO", "domicilio": "PROLG DE TURQUESA NO 30, ESTRELLA, DELEGACION GUSTAVO A. MADERO, MEXICO DF.", "colonia": "ESTRELLA", "alcaldia": "GUSTAVO A. MADERO" }, "geometry": { "type": "Point", "coordinates": [ -99.116156000090001, 19.472052000150001 ] } },
{ "type": "Feature", "properties": { "nombre": "PRIMARIA GENERAL - SIXTO NIETO ROJAS", "domicilio": "NORTE 84 NO 4538M, NUEVA TENOCHTITLAN, DELEGACION GUSTAVO A. MADERO, MEXICO DF.", "colonia": "NUEVA TENOCHTITLAN", "alcaldia": "GUSTAVO A. MADERO" }, "geometry": { "type": "Point", "coordinates": [ -99.104172999970004, 19.45681999992 ] } },
{ "type": "Feature", "properties": { "nombre": "PREESCOLAR GENERAL CON SERVICIO ASISTENCIAL - DOLORES CARBAJAL DE GORTARI", "domicilio": "MIGUEL KRAMER ESQ. JARDIN, ATLANTIDA, DELEGACION COYOACAN, MEXICO DF.", "colonia": "ATLANTIDA", "alcaldia": "COYOACAN" }, "geometry": { "type": "Point", "coordinates": [ -99.146492289502433, 19.341046125300579 ] } },
{ "type": "Feature", "properties": { "nombre": "LACTANTE, MATERNAL Y PREESCOLAR - CENDI SEP NO 08 LUIS G URBINA", "domicilio": "RETORNO 801 M-8 NO 18, EL CENTINELA, DELEGACION COYOACAN, MEXICO DF.", "colonia": "EL CENTINELA", "alcaldia": "COYOACAN" }, "geometry": { "type": "Point", "coordinates": [ -99.140898999857356, 19.337479999968959 ] } },
{ "type": "Feature", "properties": { "nombre": "PRIMARIA GENERAL - ESTEFANIA CASTAÑEDA", "domicilio": "CARLOTA ARMERO S/N, UNIDAD HABITACIONAL C T M, DELEGACION COYOACAN, MEXICO DF.", "colonia": "CTM VI CULHUACAN (U HAB)", "alcaldia": "COYOACAN" }, "geometry": { "type": "Point", "coordinates": [ -99.114793999846881, 19.325180000081829 ] } },
{ "type": "Feature", "properties": { "nombre": "PRIMARIA GENERAL - SIRIA", "domicilio": "JAPON Y CANTON S/N, ROMERO RUBIO, DELEGACION VENUSTIANO CARRANZA, MEXICO DF.", "colonia": "ROMERO RUBIO", "alcaldia": "VENUSTIANO CARRANZA" }, "geometry": { "type": "Point", "coordinates": [ -99.099638142179998, 19.44215552523 ] } },
{ "type": "Feature", "properties": { "nombre": "PRIMARIA GENERAL - PROFR. RAFAEL CRUZ MANJARREZ", "domicilio": "ROSAL NO 248, SAN PEDRO MARTIR, DELEGACION TLALPAN, MEXICO DF.", "colonia": "SAN PEDRO MARTIR (PBLO)", "alcaldia": "TLALPAN" }, "geometry": { "type": "Point", "coordinates": [ -99.169463000039997, 19.264454000370002 ] } },
{ "type": "Feature", "properties": { "nombre": "PRIMARIA GENERAL - MARTINA ISLAS", "domicilio": "ENSEÑANZA NO 3, SAN PEDRO MARTIR, DELEGACION TLALPAN, MEXICO DF.", "colonia": "SAN PEDRO MARTIR (PBLO)", "alcaldia": "TLALPAN" }, "geometry": { "type": "Point", "coordinates": [ -99.167220999989993, 19.267453000229999 ] } },
{ "type": "Feature", "properties": { "nombre": "PRIMARIA GENERAL - HEROE ANTONIO REYES", "domicilio": "PTO MATAMOROS Y MAZATLAN S/N, AMPLIACION CASAS ALEMAN, DELEGACION GUSTAVO A. MADERO, MEXICO DF.", "colonia": "CASAS ALEMAN (AMPL) I", "alcaldia": "GUSTAVO A. MADERO" }, "geometry": { "type": "Point", "coordinates": [ -99.080274406780006, 19.477695197919999 ] } },
{ "type": "Feature", "properties": { "nombre": "PRIMARIA GENERAL - ANTONIO CISNEROS Y CISNEROS", "domicilio": "CALLE DE LA BRECHA S/N, TLALPEXCO, DELEGACION GUSTAVO A. MADERO, MEXICO DF.", "colonia": "COCOYOTES", "alcaldia": "GUSTAVO A. MADERO" }, "geometry": { "type": "Point", "coordinates": [ -99.128717000020004, 19.54984999993 ] } },
{ "type": "Feature", "properties": { "nombre": "PRIMARIA GENERAL - PROFRA. VIRGINIA RIVERA LOZANO", "domicilio": null, "colonia": "LOMAS DE SAN ANGEL INN", "alcaldia": "ALVARO OBREGON" }, "geometry": { "type": "Point", "coordinates": [ -99.208786000043446, 19.345199999814589 ] } },
{ "type": "Feature", "properties": { "nombre": "SECUNDARIA PARA TRABAJADORES - IGNACIO RAMIREZ", "domicilio": null, "colonia": "SANTA MARIA LA RIBERA I", "alcaldia": "CUAUHTEMOC" }, "geometry": { "type": "Point", "coordinates": [ -99.156858871552274, 19.45361198978437 ] } },
{ "type": "Feature", "properties": { "nombre": "PRIMARIA GENERAL - PROFR. MANUEL QUIROZ MARTINEZ", "domicilio": "AV ANTIGUA VIA LA VENTA S/N, COLONIA LOMAS DE BECERRA, DELEGACION ALVARO OBREGON, MEXICO DF.", "colonia": "ARTURO MARTINEZ", "alcaldia": "ALVARO OBREGON" }, "geometry": { "type": "Point", "coordinates": [ -99.219364603993057, 19.386419474020911 ] } },
{ "type": "Feature", "properties": { "nombre": "PRIMARIA GENERAL - MAESTRO FELIX JIMENEZ NAJERA", "domicilio": "PROLG MIGUEL NEGRETE S/N, BARRIO GUADALUPE, DELEGACION TLAHUAC, MEXICO DF.", "colonia": "SAN MIGUEL ZAPOTITLA", "alcaldia": "TLAHUAC" }, "geometry": { "type": "Point", "coordinates": [ -99.036933999759995, 19.30385999984 ] } },
{ "type": "Feature", "properties": { "nombre": "PREESCOLAR GENERAL - TIZAPAN", "domicilio": "RIO CHICO S/N, COLONIA TIZAPAN, DELEGACION ALVARO OBREGON, MEXICO DF.", "colonia": "TIZAPAN_TIZAPAN SAN ANGEL", "alcaldia": "ALVARO OBREGON" }, "geometry": { "type": "Point", "coordinates": [ -99.195210592916993, 19.340916456292771 ] } },
{ "type": "Feature", "properties": { "nombre": "PRIMARIA GENERAL - LUIS PENICHE VALLADO", "domicilio": null, "colonia": "SAN MIGUEL ZAPOTITLA", "alcaldia": "TLAHUAC" }, "geometry": { "type": "Point", "coordinates": [ -99.037876539590002, 19.311997437799999 ] } },
{ "type": "Feature", "properties": { "nombre": "PRIMARIA GENERAL - PROFRA. ENRIQUETA LEON GONZALEZ", "domicilio": "SANTA BALBINA Y SAN FRANCISCO, COLONIA MOLINO DE SANTO DOMINGO, DELEGACION ALVARO OBREGON, MEXICO DF.", "colonia": "MOLINO DE SANTO DOMINGO", "alcaldia": "ALVARO OBREGON" }, "geometry": { "type": "Point", "coordinates": [ -99.208774768333981, 19.39448422879914 ] } },
{ "type": "Feature", "properties": { "nombre": "ESCUELA SECUNDARIA TECNICA 116", "domicilio": "CALLE MONTES PIRINEOS ESQUINA MAR DE LA CRISIS, SAN FRANCISCO TLALTENCO, DELEGACION TLAHUAC, MEXICO DF.", "colonia": "SELENE 1a SECC", "alcaldia": "TLAHUAC" }, "geometry": { "type": "Point", "coordinates": [ -99.008301999790007, 19.288975999910001 ] } },
{ "type": "Feature", "properties": { "nombre": "PREESCOLAR GENERAL - TLAHUAC", "domicilio": "AVENIDA HIDALGO Y CUITLAHUAC S/N, BARRIO SAN MATEO, DELEGACION TLAHUAC, MEXICO DF.", "colonia": "SAN PEDRO TLAHUAC (PBLO)", "alcaldia": "TLAHUAC" }, "geometry": { "type": "Point", "coordinates": [ -99.004600676270002, 19.269426538379999 ] } },
{ "type": "Feature", "properties": { "nombre": "PREESCOLAR GENERAL - MARIA LAVALLE URBINA", "domicilio": "RIO CHURUBUSCO Y SUR 8 S/N, CUCHILLA AGRICOLA ORIENTAL, DELEGACION IZTACALCO, MEXICO DF.", "colonia": "AGRICOLA ORIENTAL I", "alcaldia": "IZTACALCO" }, "geometry": { "type": "Point", "coordinates": [ -99.081216465140002, 19.401429800839999 ] } },
{ "type": "Feature", "properties": { "nombre": "PREESCOLAR - IGNACIO RAMIREZ", "domicilio": "AVENIDA RIO CONSULADO 2874, PENSADOR MEXICANO, DELEGACION VENUSTIANO CARRANZA, MEXICO DF.", "colonia": "PENSADOR MEXICANO I", "alcaldia": "VENUSTIANO CARRANZA" }, "geometry": { "type": "Point", "coordinates": [ -99.086061000019996, 19.443808000120001 ] } },
{ "type": "Feature", "properties": { "nombre": "ESCUELA SECUNDARIA TECNICA 7", "domicilio": "FERROCARRIL DE CINTURA NUM 85, MORELOS, DELEGACION VENUSTIANO CARRANZA, MEXICO DF.", "colonia": "PENITENCIARIA (AMPL)", "alcaldia": "VENUSTIANO CARRANZA" }, "geometry": { "type": "Point", "coordinates": [ -99.121087000169993, 19.438412999979999 ] } },
{ "type": "Feature", "properties": { "nombre": "SECUNDARIA GENERAL - OCELOTL", "domicilio": "PROL 2 DE ABRIL, PUEBLO SANTA CRUZ ACALPIXCA, DELEGACION XOCHIMILCO, MEXICO DF.", "colonia": "SANTA CRUZ ACALPIXCA (PBLO)", "alcaldia": "XOCHIMILCO" }, "geometry": { "type": "Point", "coordinates": [ -99.071526603549998, 19.243214989559998 ] } },
{ "type": "Feature", "properties": { "nombre": "PRIMARIA GENERAL - CHIPRE", "domicilio": "PROLG CANARIAS NO 53, SAN SIMON TICUMAN, DELEGACION BENITO JUAREZ, MEXICO DF..", "colonia": "SAN SIMON TICUMAC", "alcaldia": "BENITO JUAREZ" }, "geometry": { "type": "Point", "coordinates": [ -99.145955000198924, 19.37429200028911 ] } },
{ "type": "Feature", "properties": { "nombre": "SECUNDARIA GENERAL - SILVESTRE REVUELTAS", "domicilio": "VILLA CUAUHTEMOC Y VILLA MOTOLIN, VILLA DE ARAGON, DELEGACION GUSTAVO A. MADERO, MEXICO DF.", "colonia": "VILLA DE ARAGON (FRACC)", "alcaldia": "GUSTAVO A. MADERO" }, "geometry": { "type": "Point", "coordinates": [ -99.059534895850007, 19.466365430829999 ] } },
{ "type": "Feature", "properties": { "nombre": "PREESCOLAR GENERAL - MANUEL EDUARDO DE GOROSTIZA", "domicilio": "GRANJAS NO 39, LOMAS DE PALO ALTO, DELEGACION CUAJIMALPA DE MORELOS, MEXICO DF.", "colonia": "PALO ALTO (GRANJAS)", "alcaldia": "CUAJIMALPA DE MORELOS" }, "geometry": { "type": "Point", "coordinates": [ -99.255047000051675, 19.38227800003261 ] } },
{ "type": "Feature", "properties": { "nombre": "PRIMARIA GENERAL - PROFR. RAFAEL MOLINA BETANCOURT", "domicilio": "PLAN DE AYUTLA Y BANDERA, TICOMAN, DELEGACION GUSTAVO A. MADERO, MEXICO DF.", "colonia": "LA PURISIMA TICOMAN (BARR)", "alcaldia": "GUSTAVO A. MADERO" }, "geometry": { "type": "Point", "coordinates": [ -99.136413476460007, 19.515235382210001 ] } },
{ "type": "Feature", "properties": { "nombre": "PREESCOLAR GENERAL - LA PASTORA", "domicilio": "CUAUHTEMOC Y MOCTEZUMA, LA PASTORA, DELEGACION GUSTAVO A. MADERO, MEXICO DF.", "colonia": "LA PASTORA", "alcaldia": "GUSTAVO A. MADERO" }, "geometry": { "type": "Point", "coordinates": [ -99.137288351519999, 19.523741994960002 ] } },
{ "type": "Feature", "properties": { "nombre": "INTERVENCION TEMPRANA, PREESCOLAR, PRIMARIA Y CAPACITACION LABORAL ESPECIAL - CENTRO DE ATENCION MULTIPLE 55  M", "domicilio": "IRIS S/N, JARDINES DE COYOACAN, DELEGACION COYOACAN, MEXICO DF.", "colonia": "JARDINES DE COYOACAN (FRACC)", "alcaldia": "COYOACAN" }, "geometry": { "type": "Point", "coordinates": [ -99.126296000140897, 19.313408999970999 ] } },
{ "type": "Feature", "properties": { "nombre": "PRIMARIA GENERAL - CARMEN SERDAN ALATRISTE", "domicilio": "CALZ DE TLALPAN NO 1728, COUNTRY CLUB CHURUBUSCO, DELEGACION COYOACAN, MEXICO DF.", "colonia": "COUNTRY CLUB", "alcaldia": "COYOACAN" }, "geometry": { "type": "Point", "coordinates": [ -99.144396999789819, 19.353918999862689 ] } },
{ "type": "Feature", "properties": { "nombre": "PREESCOLAR GENERAL - DOLORES GUERRERO", "domicilio": "BELISARIO DOMINGUEZ Y AV MEXICO, COYOACAN, DELEGACION COYOACAN, MEXICO DF.", "colonia": "DEL CARMEN", "alcaldia": "COYOACAN" }, "geometry": { "type": "Point", "coordinates": [ -99.1649691853832, 19.35115900471666 ] } },
{ "type": "Feature", "properties": { "nombre": "PRIMARIA GENERAL - VICENTE GUERRERO", "domicilio": "MINA NO 5, PUEBLO SAN MATEO TLALTENANGO, DELEGACION CUAJIMALPA DE MORELOS, MEXICO DF.", "colonia": "SAN MATEO TLALTENANGO (PBLO)", "alcaldia": "CUAJIMALPA DE MORELOS" }, "geometry": { "type": "Point", "coordinates": [ -99.282548000087843, 19.342570000064139 ] } },
{ "type": "Feature", "properties": { "nombre": "PREESCOLAR GENERAL - ACAXOCHITL", "domicilio": "JOHN F. KENNEDY S/N, COLONIA AMPLIACION PRESIDENTES, DELEGACION ALVARO OBREGON, MEXICO DF.", "colonia": "PRESIDENTES 1RA (AMPL)", "alcaldia": "ALVARO OBREGON" }, "geometry": { "type": "Point", "coordinates": [ -99.224827687867261, 19.37545455352501 ] } },
{ "type": "Feature", "properties": { "nombre": "PRIMARIA GENERAL - GUADALUPE VICTORIA", "domicilio": "FELIPE VILLANUEVA NO 18, COLONIA GUADALUPE INN, DELEGACION ALVARO OBREGON, MEXICO DF", "colonia": "GUADALUPE INN", "alcaldia": "ALVARO OBREGON" }, "geometry": { "type": "Point", "coordinates": [ -99.187289602072966, 19.359834398071861 ] } },
{ "type": "Feature", "properties": { "nombre": "PRIMARIA GENERAL - REPUBLICA DE HUNGRIA", "domicilio": "GLORIA Y GIRASOL, JUAN GONZALEZ ROMERO, DELEGACION GUSTAVO A. MADERO, MEXICO DF.", "colonia": "JUAN GONZALEZ ROMERO", "alcaldia": "GUSTAVO A. MADERO" }, "geometry": { "type": "Point", "coordinates": [ -99.089352674219995, 19.506105704229999 ] } },
{ "type": "Feature", "properties": { "nombre": "PRIMARIA GENERAL - JUAN ESCUTIA", "domicilio": "EL BALCON S/N, COLONIA TETELPAN, DELEGACION ALVARO OBREGON, MEXICO DF.", "colonia": "TETELPAN (PBLO)", "alcaldia": "ALVARO OBREGON" }, "geometry": { "type": "Point", "coordinates": [ -99.22605199994706, 19.344304999943649 ] } },
{ "type": "Feature", "properties": { "nombre": "PRIMARIA GENERAL - MTRA. GUADALUPE NUÑEZ Y PARRA", "domicilio": "CALZ MISTERIOS NO 795, GUSTAVO A. MADERO, DELEGACION GUSTAVO A. MADERO, MEXICO DF.", "colonia": "TEPEYAC INSURGENTES", "alcaldia": "GUSTAVO A. MADERO" }, "geometry": { "type": "Point", "coordinates": [ -99.119077999889996, 19.48430999987 ] } },
{ "type": "Feature", "properties": { "nombre": "PRIMARIA GENERAL - ALFONSO PRUNEDA", "domicilio": "AV IXTACALA Y EJE 1 PONIENTE, SANTA ROSA, DELEGACION GUSTAVO A. MADERO, MEXICO DF.", "colonia": "SANTA ROSA", "alcaldia": "GUSTAVO A. MADERO" }, "geometry": { "type": "Point", "coordinates": [ -99.170041759049994, 19.527862537170002 ] } },
{ "type": "Feature", "properties": { "nombre": "PRIMARIA GENERAL - PROFRA. AURORA LOPEZ VELARDE BERUMEN", "domicilio": "PERIFERICO SUR NO 7666, GRANJAS COAPA, DELEGACION TLALPAN, MEXICO DF.", "colonia": "COAPA-VILLA CUEMANCO", "alcaldia": "TLALPAN" }, "geometry": { "type": "Point", "coordinates": [ -99.110226999790001, 19.29161699978 ] } },
{ "type": "Feature", "properties": { "nombre": "PREESCOLAR GENERAL - MIGUEL HIDALGO", "domicilio": "AV DE LAS TORRES Y JESUS LECUONA, MIGUEL HIDALGO, DELEGACION TLAHUAC, MEXICO DF.", "colonia": "AMPLIACION MIGUEL HIDALGO 2A SECC", "alcaldia": "TLALPAN" }, "geometry": { "type": "Point", "coordinates": [ -99.195889979900002, 19.2853153119 ] } },
{ "type": "Feature", "properties": { "nombre": "SECUNDARIA GENERAL - JUVENTINO ROSAS CADENAS", "domicilio": "TARASCOS FRENTE A CHONTALES, TLALCOLIGIA, DELEGACION TLALPAN, MEXICO DF.", "colonia": "TLALCOLIGIA", "alcaldia": "TLALPAN" }, "geometry": { "type": "Point", "coordinates": [ -99.174158395640006, 19.276688393139999 ] } },
{ "type": "Feature", "properties": { "nombre": "ESCUELA SECUNDARIA TECNICA 40", "domicilio": "AV DEL RIEGO S/N, VILLA COAPA, DELEGACION TLALPAN, MEXICO DF.", "colonia": "NARCISO MENDOZA VILLA COAPA SUPERMANZANA 8 (U HAB)", "alcaldia": "TLALPAN" }, "geometry": { "type": "Point", "coordinates": [ -99.118947672459996, 19.293262303900001 ] } },
{ "type": "Feature", "properties": { "nombre": "PRIMARIA GENERAL - JUAN JACOBO ROUSSEAU", "domicilio": "IZTACCIHUATL Y LOS PINOS NO 90, LA PRADERA, DELEGACION GUSTAVO A. MADERO, MEXICO DF.", "colonia": "LA PRADERA", "alcaldia": "GUSTAVO A. MADERO" }, "geometry": { "type": "Point", "coordinates": [ -99.066803000030006, 19.479439999899999 ] } },
{ "type": "Feature", "properties": { "nombre": "PREESCOLAR GENERAL - SILVINA JARDON", "domicilio": "PRIVADA ROSAS MORENO NO 15, SANTIAGO AHUIZOTLA, DELEGACION AZCAPOTZALCO, MEXICO DF.", "colonia": "SANTIAGO AHUIZOTLA (PBLO)", "alcaldia": "AZCAPOTZALCO" }, "geometry": { "type": "Point", "coordinates": [ -99.212378000318324, 19.479635000006802 ] } },
{ "type": "Feature", "properties": { "nombre": "ESCUELA SECUNDARIA TECNICA 85", "domicilio": "CAMINO A CUAUTEPEC Y CHALMITA, EL ARBOLILLO, DELEGACION GUSTAVO A. MADERO, MEXICO DF.", "colonia": "JORGE NEGRETE", "alcaldia": "GUSTAVO A. MADERO" }, "geometry": { "type": "Point", "coordinates": [ -99.142124999900005, 19.527051999918999 ] } },
{ "type": "Feature", "properties": { "nombre": "PREESCOLAR GENERAL - AMANTECATL", "domicilio": "DEMOCRACIAS NO 46, PUEBLO SAN MIGUEL AMANTLA, DELEGACION AZCAPOTZALCO, MEXICO DF.", "colonia": "SAN  MIGUEL AMANTLA (PBLO)", "alcaldia": "AZCAPOTZALCO" }, "geometry": { "type": "Point", "coordinates": [ -99.204833999945123, 19.47398499996309 ] } },
{ "type": "Feature", "properties": { "nombre": "PRIMARIA GENERAL - SANTIAGO R. DE LA VEGA", "domicilio": "PROLG BOLIVAR NO 1101, PERIODISTAS, DELEGACION BENITO JUAREZ, MEXICO DF..", "colonia": "PERIODISTA FRANCISCO ZARCO", "alcaldia": "BENITO JUAREZ" }, "geometry": { "type": "Point", "coordinates": [ -99.14613300003704, 19.382405000113181 ] } },
{ "type": "Feature", "properties": { "nombre": "PRIMARIA GENERAL - MARTIRES DE LA LIBERTAD", "domicilio": "AV AZCAPOTZALCO NO 574, AZCAPOTZALCO, DELEGACION AZCAPOTZALCO, MEXICO DF.", "colonia": "CENTRO DE AZCAPOTZALCO", "alcaldia": "AZCAPOTZALCO" }, "geometry": { "type": "Point", "coordinates": [ -99.187110000286594, 19.479287000087488 ] } },
{ "type": "Feature", "properties": { "nombre": "PRIMARIA GENERAL - VIDAL RIVERO", "domicilio": "PROLG CIPRES NO 601, DEL GAS, DELEGACION AZCAPOTZALCO, MEXICO DF.", "colonia": "ARENAL", "alcaldia": "AZCAPOTZALCO" }, "geometry": { "type": "Point", "coordinates": [ -99.154293280875365, 19.467519555716411 ] } },
{ "type": "Feature", "properties": { "nombre": "INTERVENCION TEMPRANA, PREESCOLAR, PRIMARIA Y CAPACITACION LABORAL ESPECIAL - CENTRO DE ATENCION MULTIPLE 40  M", "domicilio": "MELCHOR OCAMPO NO  1, SANTO TOMAS AJUSCO, DELEGACION TLAHUAC, MEXICO DF.", "colonia": "SANTO TOMAS AJUSCO (PBLO)", "alcaldia": "TLALPAN" }, "geometry": { "type": "Point", "coordinates": [ -99.205328000039998, 19.219835999939999 ] } },
{ "type": "Feature", "properties": { "nombre": "PREESCOLAR GENERAL - CADI JUAN N. ALVAREZ", "domicilio": "AV. RIO CHURUBUSCO ESQ. CANELA S/N, GRANJAS MEXICO, DELEGACION IZTACALCO, MEXICO DF.", "colonia": "GRANJAS MEXICO II", "alcaldia": "IZTACALCO" }, "geometry": { "type": "Point", "coordinates": [ -99.098348366760007, 19.397448068349998 ] } },
{ "type": "Feature", "properties": { "nombre": "PRIMARIA GENERAL - ROBERTO MEDELLIN", "domicilio": "AV EMILIANO ZAPATA NO 30, PUEBLO SAN NICOLAS TETELCO, DELEGACION TLAHUAC, MEXICO DF.", "colonia": "SAN NICOLAS TETELCO (PBLO)", "alcaldia": "TLAHUAC" }, "geometry": { "type": "Point", "coordinates": [ -98.972263999939997, 19.217820000180001 ] } },
{ "type": "Feature", "properties": { "nombre": "PREESCOLAR GENERAL - SUSAN BLUW GRIMSLY", "domicilio": "CALLE UNO NO 181, PANTITLAN, DELEGACION IZTACALCO, MEXICO DF.", "colonia": "PANTITLAN III", "alcaldia": "IZTACALCO" }, "geometry": { "type": "Point", "coordinates": [ -99.068663000019995, 19.414351000210001 ] } },
{ "type": "Feature", "properties": { "nombre": "PRIMARIA GENERAL - CALTLAMACHTILLI", "domicilio": "NITLA NO 24, TLAZINTLA, DELEGACION IZTACALCO, MEXICO DF.", "colonia": "TLAZINTLA", "alcaldia": "IZTACALCO" }, "geometry": { "type": "Point", "coordinates": [ -99.111596000039995, 19.396696000039999 ] } },
{ "type": "Feature", "properties": { "nombre": "PRIMARIA GENERAL - SUSANA IRMA HERRERA MASCORRO", "domicilio": "RODOLFO MENDEZ NO 3, AMPL GABRIEL HERNANDEZ, DELEGACION GUSTAVO A. MADERO, MEXICO DF.", "colonia": "GABRIEL HERNANDEZ (AMPL) II", "alcaldia": "GUSTAVO A. MADERO" }, "geometry": { "type": "Point", "coordinates": [ -99.099998000070002, 19.505887999940001 ] } },
{ "type": "Feature", "properties": { "nombre": "PRIMARIA GENERAL - GABINO BARREDA", "domicilio": "ALHONDIGA Y SOLEDAD, CENTRO, DELEGACION CUAUHTEMOC, MEXICO DF.", "colonia": "CENTRO VII", "alcaldia": "CUAUHTEMOC" }, "geometry": { "type": "Point", "coordinates": [ -99.127291000077804, 19.430940000127539 ] } },
{ "type": "Feature", "properties": { "nombre": "PREESCOLAR GENERAL - MIGUEL E. SCHULTZ", "domicilio": "JOSE T. CUELLAR NO 176, VISTA ALEGRE, DELEGACION CUAUHTEMOC, MEXICO DF.", "colonia": "OBRERA I", "alcaldia": "CUAUHTEMOC" }, "geometry": { "type": "Point", "coordinates": [ -99.141177999638103, 19.4168239996579 ] } },
{ "type": "Feature", "properties": { "nombre": "PRIMARIA GENERAL - REPUBLICA DE JAMAICA", "domicilio": "JACARANDAS S/N, COLONIA EL PIRUL, DELEGACION ALVARO OBREGON, MEXICO DF.", "colonia": "EL PIRUL", "alcaldia": "ALVARO OBREGON" }, "geometry": { "type": "Point", "coordinates": [ -99.240569999990953, 19.37936900017684 ] } },
{ "type": "Feature", "properties": { "nombre": "PREESCOLAR GENERAL - ELENA ZAPATA", "domicilio": "CEDRO NO 205, SANTA MARIA LA RIBERA, DELEGACION CUAUHTEMOC, MEXICO DF.", "colonia": "SANTA MARIA LA RIBERA II", "alcaldia": "CUAUHTEMOC" }, "geometry": { "type": "Point", "coordinates": [ -99.161909999984275, 19.450249000159211 ] } },
{ "type": "Feature", "properties": { "nombre": "PREESCOLAR GENERAL - CENTENARIO DE LA HEROICA ESCUELA NAVAL MILITAR", "domicilio": "CANAL NACIONAL S/N UNIDAD MILITAR NAVAL, GRANJAS COAPA, DELEGACION TLAHUAC, MEXICO DF.", "colonia": "HUESO PERIFERICO-ISSSFAM NO. 7 (U HABS)", "alcaldia": "TLALPAN" }, "geometry": { "type": "Point", "coordinates": [ -99.101067232809996, 19.298663327263998 ] } },
{ "type": "Feature", "properties": { "nombre": "PREESCOLAR GENERAL - KALLINPILTONTLI", "domicilio": "V.C. Y A. BONFIL MZA 110 B LTE 813 B, AMPLIACION MIGUEL HIDALGO, DELEGACION TLAHUAC, MEXICO DF.", "colonia": "AMPLIACION MIGUEL HIDALGO 2A SECC", "alcaldia": "TLALPAN" }, "geometry": { "type": "Point", "coordinates": [ -99.20196899986, 19.278281000029999 ] } },
{ "type": "Feature", "properties": { "nombre": "PREESCOLAR GENERAL - AÑO INTERNACIONAL DEL NIÑO", "domicilio": "HDA SAN NICOLAS TOLENTINO S/N, PRADO COAPA, DELEGACION TLALPAN, MEXICO DF.", "colonia": "PRADO COAPA 3A SECCION-POTRERO ACOXPA", "alcaldia": "TLALPAN" }, "geometry": { "type": "Point", "coordinates": [ -99.135595999990002, 19.293344999997 ] } },
{ "type": "Feature", "properties": { "nombre": "PRIMARIA GENERAL - RICARDO GOMEZ", "domicilio": "AV MEXICO NO 19, COLONIA TIZAPAN, DELEGACION ALVARO OBREGON, MEXICO DF", "colonia": "LA OTRA BANDA", "alcaldia": "ALVARO OBREGON" }, "geometry": { "type": "Point", "coordinates": [ -99.193038999830563, 19.337887999944019 ] } },
{ "type": "Feature", "properties": { "nombre": "SECUNDARIA GENERAL - SECUNDARIA FEDERAL", "domicilio": "EMILIANO ZAPATA Y G GUERRA, CUAUTEPEC DE MADERO, DELEGACION GUSTAVO A. MADERO, MEXICO DF.", "colonia": "ZONA ESCOLAR ORIENTE", "alcaldia": "GUSTAVO A. MADERO" }, "geometry": { "type": "Point", "coordinates": [ -99.141809533659995, 19.537558465819998 ] } },
{ "type": "Feature", "properties": { "nombre": "PRIMARIA GENERAL - MELCHOR OCAMPO", "domicilio": "AV LAZARO CARDENAS S/N, CUAUTEPEC BARRIO BAJO, DELEGACION GUSTAVO A. MADERO, MEXICO DF.", "colonia": "LA CANDELARIA TICOMAN (BARR)", "alcaldia": "GUSTAVO A. MADERO" }, "geometry": { "type": "Point", "coordinates": [ -99.132953000100002, 19.520988999909999 ] } },
{ "type": "Feature", "properties": { "nombre": "SECUNDARIA GENERAL - PONCIANO ARRIAGA", "domicilio": "AV MICHOACAN S/N, CHALMA DE GUADALUPE, DELEGACION GUSTAVO A. MADERO, MEXICO DF.", "colonia": "CHALMA DE GUADALUPE I", "alcaldia": "GUSTAVO A. MADERO" }, "geometry": { "type": "Point", "coordinates": [ -99.150053999969998, 19.552860999939998 ] } },
{ "type": "Feature", "properties": { "nombre": "PRIMARIA GENERAL - ANDRES IDUARTE", "domicilio": "AV ACUEDUCTO NO 1042, TICOMAN, DELEGACION GUSTAVO A. MADERO, MEXICO DF.", "colonia": "LA LAGUNA TICOMAN (BARR)", "alcaldia": "GUSTAVO A. MADERO" }, "geometry": { "type": "Point", "coordinates": [ -99.126532000140003, 19.516618000089998 ] } },
{ "type": "Feature", "properties": { "nombre": "ESCUELA SECUNDARIA TECNICA 82", "domicilio": "FELIPE ANGELES Y JERONIMO DE LAS CASAS, ARBOLEDAS DE CUAUTEPEC EL ALTO, DELEGACION GUSTAVO A. MADERO, MEXICO DF.", "colonia": "PALMATITLA", "alcaldia": "GUSTAVO A. MADERO" }, "geometry": { "type": "Point", "coordinates": [ -99.132522000020003, 19.553499999949999 ] } },
{ "type": "Feature", "properties": { "nombre": "PRIMARIA GENERAL - CARLOS MARX", "domicilio": "CAMINO REAL DE SAN MARTIN S/N, PUEBLO SANTA BARBARA, DELEGACION AZCAPOTZALCO, MEXICO DF.", "colonia": "SAN MARTIN XOCHINAHUAC (PBLO)", "alcaldia": "AZCAPOTZALCO" }, "geometry": { "type": "Point", "coordinates": [ -99.192478999892884, 19.498526999913519 ] } },
{ "type": "Feature", "properties": { "nombre": "PRIMARIA GENERAL - NARCISO BASSOLS", "domicilio": "MATEMATICAS S/N,  UNIDAD INFONAVIT EL ROSARIO, DELEGACION AZCAPOTZALCO, MEXICO DF.", "colonia": "EL ROSARIO A (U HAB)", "alcaldia": "AZCAPOTZALCO" }, "geometry": { "type": "Point", "coordinates": [ -99.208277999939895, 19.512048999998839 ] } },
{ "type": "Feature", "properties": { "nombre": "PREESCOLAR GENERAL - ANGEL MARIA GARIBAY KINTANA", "domicilio": "EJE 5 NORTE Y AV. DE LAS CULTURAS, SAN MARTIN XOCHINAHUAC, DELEGACION AZCAPOTZALCO, MEXICO DF.", "colonia": "EL ROSARIO A (U HAB)", "alcaldia": "AZCAPOTZALCO" }, "geometry": { "type": "Point", "coordinates": [ -99.207996333833819, 19.508675885164269 ] } },
{ "type": "Feature", "properties": { "nombre": "PRIMARIA GENERAL - EMPERADOR CUITLAHUAC", "domicilio": "ESTACION PANTACO Y MANZANA 3 S/N, UNIDAD CUITLAHUAC, DELEGACION AZCAPOTZALCO, MEXICO DF.", "colonia": "SAN FRANCISCO TETECALA (PBLO)", "alcaldia": "AZCAPOTZALCO" }, "geometry": { "type": "Point", "coordinates": [ -99.189894000035821, 19.479466000184189 ] } },
{ "type": "Feature", "properties": { "nombre": "ESCUELA SECUNDARIA TECNICA 74", "domicilio": "AV JUAN ALVAREZ Y CDA MARTIN CARRERA S/N, CAMPAMENTO 2 DE OCTUBRE, DELEGACION IZTACALCO, MEXICO DF.", "colonia": "CAMPAMENTO 2 DE OCTUBRE II", "alcaldia": "IZTACALCO" }, "geometry": { "type": "Point", "coordinates": [ -99.119607512200005, 19.385578140660002 ] } },
{ "type": "Feature", "properties": { "nombre": "SECUNDARIA GENERAL - SOR JUANA INES DE LA CRUZ", "domicilio": "SUR 103 NO 1034, AERONAUTICA MILITAR, DELEGACION VENUSTIANO CARRANZA, MEXICO DF.", "colonia": "EL PARQUE", "alcaldia": "VENUSTIANO CARRANZA" }, "geometry": { "type": "Point", "coordinates": [ -99.11656200022, 19.422606000159998 ] } },
{ "type": "Feature", "properties": { "nombre": "PREESCOLAR GENERAL - AMPARO SOLIS PAYAN", "domicilio": "LAUREL NO 10, SANTA MARIA LA RIBERA, DELEGACION CUAUHTEMOC, MEXICO DF.", "colonia": "SANTA MARIA LA RIBERA I", "alcaldia": "CUAUHTEMOC" }, "geometry": { "type": "Point", "coordinates": [ -99.159691999305764, 19.45354600094668 ] } },
{ "type": "Feature", "properties": { "nombre": "PRIMARIA GENERAL - ESTADO DE DURANGO", "domicilio": "FCO GONZALEZ BOCANEGRA NO 74, MORELOS, DELEGACION CUAUHTEMOC, MEXICO DF.", "colonia": "MORELOS III", "alcaldia": "CUAUHTEMOC" }, "geometry": { "type": "Point", "coordinates": [ -99.134449999979878, 19.446168999692588 ] } },
{ "type": "Feature", "properties": { "nombre": "PRIMARIA GENERAL - RAFAEL RAMOS PEDRUEZA", "domicilio": "DOCTOR FORTUNATO 226, DOCTORES, DELEGACION CUAUHTEMOC, MEXICO DF.", "colonia": "DOCTORES II", "alcaldia": "CUAUHTEMOC" }, "geometry": { "type": "Point", "coordinates": [ -99.148382999979916, 19.417923000187091 ] } },
{ "type": "Feature", "properties": { "nombre": "PRIMARIA GENERAL CON SERVICIO ASISTENCIAL - ESCUELA DE PARTICIPACION SOCIAL NUMERO 6", "domicilio": "JOSE ANTONIO TORRES NO 745, ASTURIAS, DELEGACION CUAUHTEMOC, MEXICO DF.", "colonia": "ASTURIAS", "alcaldia": "CUAUHTEMOC" }, "geometry": { "type": "Point", "coordinates": [ -99.134357999970817, 19.40390500004364 ] } },
{ "type": "Feature", "properties": { "nombre": "PRIMARIA GENERAL - JOSE GOROSTIZA", "domicilio": "FELIX U GOMEZ NO 36, GUERRERO, DELEGACION CUAUHTEMOC, MEXICO DF.", "colonia": "GUERRERO I", "alcaldia": "CUAUHTEMOC" }, "geometry": { "type": "Point", "coordinates": [ -99.139897000065446, 19.448838000010578 ] } },
{ "type": "Feature", "properties": { "nombre": "PREESCOLAR GENERAL CON SERVICIO ASISTENCIAL - CARLOTA DE GORTARI CARBAJAL", "domicilio": "CALLE DE CHICLE NO 179, GRANJAS MEXICO, DELEGACION IZTACALCO, MEXICO DF.", "colonia": "GRANJAS MEXICO I", "alcaldia": "IZTACALCO" }, "geometry": { "type": "Point", "coordinates": [ -99.107294999939995, 19.401879000061001 ] } },
{ "type": "Feature", "properties": { "nombre": "PRIMARIA GENERAL - PRIMARIA GENERAL", "domicilio": "PROLG PLOMEROS S/N, MICHOACANA, DELEGACION VENUSTIANO CARRANZA, MEXICO DF.", "colonia": "MICHOACANA", "alcaldia": "VENUSTIANO CARRANZA" }, "geometry": { "type": "Point", "coordinates": [ -99.116096836419999, 19.447834485080001 ] } },
{ "type": "Feature", "properties": { "nombre": "PRIMARIA GENERAL - CONSTITUYENTE CELESTINO PEREZ Y PEREZ", "domicilio": "AV.SENTIMIENTO A LA NACION S/N, UNIDAD HAB ERMITA ZARAGOZA, DELEGACION IZTAPALAPA, MEXICO DF.", "colonia": "ERMITA ZARAGOZA (U HAB) II", "alcaldia": "IZTAPALAPA" }, "geometry": { "type": "Point", "coordinates": [ -99.001322999839999, 19.367466000339999 ] } },
{ "type": "Feature", "properties": { "nombre": "PRIMARIA GENERAL - TLILALPACATL", "domicilio": "AV. MEXICO NO.6, PUEBLO ACULCO, DELEGACION IZTAPALAPA, MEXICO DF.", "colonia": "ACULCO (PBLO)", "alcaldia": "IZTAPALAPA" }, "geometry": { "type": "Point", "coordinates": [ -99.104589000130005, 19.371729999860001 ] } },
{ "type": "Feature", "properties": { "nombre": "SECUNDARIA TECNICA INDUSTRIAL - ESCUELA SECUNDARIA TECNICA 71", "domicilio": "AV. 414 A Y CALLE 1537 Y 1543, U SAN JUAN DE ARAGON 6A SECCION, DELEGACION GUSTAVO A. MADERO, MEXICO DF.", "colonia": "SAN JUAN DE ARAGON 6A SECCION (U HAB) II", "alcaldia": "GUSTAVO A. MADERO" }, "geometry": { "type": "Point", "coordinates": [ -99.063425043750001, 19.466566521160001 ] } },
{ "type": "Feature", "properties": { "nombre": "PREESCOLAR GENERAL CON SERVICIO ASISTENCIAL - PROFRA. MA. PATIÑO VDA DE OLMEDO", "domicilio": "MIRADOR S/N, AMPLIACION TEPEPAN, DELEGACION XOCHIMILCO, MEXICO DF.", "colonia": "TEPEPAN (AMPL)", "alcaldia": "XOCHIMILCO" }, "geometry": { "type": "Point", "coordinates": [ -99.130451999919998, 19.262771999830001 ] } },
{ "type": "Feature", "properties": { "nombre": "PRIMARIA GENERAL - PROFRA. ISABEL ROBLES ESPEJEL", "domicilio": "AV FRANCISCO J MACIN S/N, UNIDAD HAB CTM, DELEGACION GUSTAVO A. MADERO, MEXICO DF.", "colonia": "CTM EL RISCO (U HAB)", "alcaldia": "GUSTAVO A. MADERO" }, "geometry": { "type": "Point", "coordinates": [ -99.099055999970005, 19.511624000099999 ] } },
{ "type": "Feature", "properties": { "nombre": "PRIMARIA GENERAL - NEPAL", "domicilio": "CALLE 509 PLAZA 3, U SAN JUAN DE ARAGON, DELEGACION GUSTAVO A. MADERO, MEXICO DF.", "colonia": "SAN JUAN DE ARAGON 1A SECCION (U HAB) I", "alcaldia": "GUSTAVO A. MADERO" }, "geometry": { "type": "Point", "coordinates": [ -99.096090000220002, 19.454826999550999 ] } },
{ "type": "Feature", "properties": { "nombre": "PREESCOLAR GENERAL - TLACOQUEMECATL", "domicilio": null, "colonia": "NARVARTE IV", "alcaldia": "BENITO JUAREZ" }, "geometry": { "type": "Point", "coordinates": [ -99.151146000163422, 19.394189000250151 ] } },
{ "type": "Feature", "properties": { "nombre": "PREESCOLAR GENERAL - GUILLERMO GRIMM", "domicilio": "1RA DE MODESTO LECHUGA S/N, UNIDAD HAB VICENTE GUERRERO, DELEGACION IZTAPALAPA, MEXICO DF.", "colonia": "VICENTE GUERRERO SUPER MANZANA 6 (U HAB)", "alcaldia": "IZTAPALAPA" }, "geometry": { "type": "Point", "coordinates": [ -99.055541000320005, 19.353930000230001 ] } },
{ "type": "Feature", "properties": { "nombre": "INTERVENCION TEMPRANA, PREESCOLAR, PRIMARIA Y CAPACITACION LABORAL ESPECIAL - CAM 51", "domicilio": "AV BENITO JUAREZ S/N, MIXCOATL, DELEGACION IZTAPALAPA, MEXICO DF.", "colonia": "MIXCOATL", "alcaldia": "IZTAPALAPA" }, "geometry": { "type": "Point", "coordinates": [ -99.050321724309995, 19.32526953687 ] } },
{ "type": "Feature", "properties": { "nombre": "PREESCOLAR GENERAL - HEROES DE CHURUBUSCO", "domicilio": "JORGE ENCISO NO 1303, HEROES DE CHURUBUSCO, DELEGACION IZTAPALAPA, MEXICO DF.", "colonia": "MEXICALTZINGO (PBLO)", "alcaldia": "IZTAPALAPA" }, "geometry": { "type": "Point", "coordinates": [ -99.119780999770001, 19.359603000330001 ] } },
{ "type": "Feature", "properties": { "nombre": "PRIMARIA GENERAL - VILLA ESTRELLA", "domicilio": "CAM CERRO DE LA ESTRELLA NO.4, EL SANTUARIO, DELEGACION IZTAPALAPA, MEXICO DF.", "colonia": "SANTA MARIA DEL MONTE", "alcaldia": "IZTAPALAPA" }, "geometry": { "type": "Point", "coordinates": [ -99.091647625269999, 19.351657106480001 ] } },
{ "type": "Feature", "properties": { "nombre": "PRIMARIA GENERAL - MITLA", "domicilio": "AREA DE SERVICIOS DE LA MZ.4, EL MOLINO IATAPALAPA, DELEGACION IZTAPALAPA, MEXICO DF.", "colonia": "EL MOLINO_", "alcaldia": "IZTAPALAPA" }, "geometry": { "type": "Point", "coordinates": [ -99.089496977940001, 19.35471487617 ] } },
{ "type": "Feature", "properties": { "nombre": "SECUNDARIA GENERAL - PRESIDENTES DE MEXICO", "domicilio": "CANAL DE PANAMA Y JAIME NUNO, INSURGENTES, DELEGACION IZTAPALAPA, MEXICO DF.", "colonia": "LAS PEAS I", "alcaldia": "IZTAPALAPA" }, "geometry": { "type": "Point", "coordinates": [ -99.050823174780007, 19.333325602199999 ] } },
{ "type": "Feature", "properties": { "nombre": "INTERVENCION TEMPRANA, PREESCOLAR, PRIMARIA Y CAPACITACION LABORAL ESPECIAL - CENTRO DE ATENCION MULTIPLE 95", "domicilio": "COMERCIO NO  43, PUEBLO STA CRUZ XOCHITEPEC, DELEGACION XOCHIMILCO, MEXICO DF.", "colonia": "SANTA CRUZ XOCHITEPEC (PBLO)", "alcaldia": "XOCHIMILCO" }, "geometry": { "type": "Point", "coordinates": [ -99.130412000009997, 19.259362000149999 ] } },
{ "type": "Feature", "properties": { "nombre": "SECUNDARIA GENERAL - DIEGO RIVERA", "domicilio": "CDA POPOCATEPETL NO 56, PUEBLO DE XOCO, DELEGACION BENITO JUAREZ, MEXICO DF..", "colonia": "XOCO", "alcaldia": "BENITO JUAREZ" }, "geometry": { "type": "Point", "coordinates": [ -99.167109267900713, 19.364657216692208 ] } },
{ "type": "Feature", "properties": { "nombre": "PRIMARIA GENERAL - MAESTRO ERNESTO ALCONEDO", "domicilio": "ADOLFO PRIETO NO 1365, DEL VALLE, DELEGACION BENITO JUAREZ, MEXICO DF..", "colonia": "TLACOQUEMECATL DEL VALLE", "alcaldia": "BENITO JUAREZ" }, "geometry": { "type": "Point", "coordinates": [ -99.171569999906538, 19.377248999919932 ] } },
{ "type": "Feature", "properties": { "nombre": "SECUNDARIA GENERAL - ERMILO ABREU GOMEZ", "domicilio": "AV MANUEL SALAZAR Y FRANCISCO SARABIA, PROVIDENCIA, DELEGACION AZCAPOTZALCO, MEXICO DF.", "colonia": "PROVIDENCIA", "alcaldia": "AZCAPOTZALCO" }, "geometry": { "type": "Point", "coordinates": [ -99.208030321045797, 19.489871291671399 ] } },
{ "type": "Feature", "properties": { "nombre": "ESCUELA SECUNDARIA TECNICA 38", "domicilio": "PROL SABINO ESQ CALLE 4, DEL GAS, DELEGACION AZCAPOTZALCO, MEXICO DF.", "colonia": "DEL GAS (AMPL)", "alcaldia": "AZCAPOTZALCO" }, "geometry": { "type": "Point", "coordinates": [ -99.156066000021823, 19.467161000192149 ] } },
{ "type": "Feature", "properties": { "nombre": "TELESECUNDARIA 71", "domicilio": "TLAHUICAS Y TOTONACAS, TEZOZOMOC, DELEGACION AZCAPOTZALCO, MEXICO DF.", "colonia": "TEZOZOMOC", "alcaldia": "AZCAPOTZALCO" }, "geometry": { "type": "Point", "coordinates": [ -99.197520000173526, 19.489829000282811 ] } },
{ "type": "Feature", "properties": { "nombre": "PREESCOLAR GENERAL - JOSEFINA RAMOS DEL RIO", "domicilio": "4TO. CALLEJON DEL NOPAL NO 11, ATLAMPA, DELEGACION CUAUHTEMOC, MEXICO DF.", "colonia": "ATLAMPA", "alcaldia": "CUAUHTEMOC" }, "geometry": { "type": "Point", "coordinates": [ -99.151343999539705, 19.458110999986641 ] } },
{ "type": "Feature", "properties": { "nombre": "PREESCOLAR GENERAL - BERTHA DOMINGUEZ", "domicilio": "H. DE GRANADITAS Y TENOCHTITLAN, MORELOS, DELEGACION CUAUHTEMOC, MEXICO DF.", "colonia": "CENTRO I", "alcaldia": "CUAUHTEMOC" }, "geometry": { "type": "Point", "coordinates": [ -99.129747050743603, 19.443082263111819 ] } },
{ "type": "Feature", "properties": { "nombre": "PRIMARIA GENERAL - MAESTRO FRANCISCO MONTES DE OCA", "domicilio": "CAMPECHE NO 304, HIPODROMO, DELEGACION CUAUHTEMOC, MEXICO DF.", "colonia": "HIPODROMO I", "alcaldia": "CUAUHTEMOC" }, "geometry": { "type": "Point", "coordinates": [ -99.171591999899036, 19.408157999990561 ] } },
{ "type": "Feature", "properties": { "nombre": "PRIMARIA GENERAL - HORACIO MANN", "domicilio": "ABRAHAM GONZALEZ NO 151, JUAREZ, DELEGACION CUAUHTEMOC, MEXICO DF.", "colonia": "JUAREZ", "alcaldia": "CUAUHTEMOC" }, "geometry": { "type": "Point", "coordinates": [ -99.153964892503623, 19.42917590733542 ] } },
{ "type": "Feature", "properties": { "nombre": "PRIMARIA GENERAL - MAESTRO JULIAN CARRILLO", "domicilio": "CARUSO NO 98, PERALVILLO, DELEGACION CUAUHTEMOC, MEXICO DF.", "colonia": "PERALVILLO II", "alcaldia": "CUAUHTEMOC" }, "geometry": { "type": "Point", "coordinates": [ -99.132434000042167, 19.46065399998276 ] } },
{ "type": "Feature", "properties": { "nombre": "SECUNDARIA GENERAL - FRANCISCO ZARCO", "domicilio": "H CONGRESO DE LA UNION Y STAND DE TIRO, MERCED BALBUENA, DELEGACION VENUSTIANO CARRANZA, MEXICO DF.", "colonia": "EL PARQUE", "alcaldia": "VENUSTIANO CARRANZA" }, "geometry": { "type": "Point", "coordinates": [ -99.119836181110003, 19.424192587250001 ] } },
{ "type": "Feature", "properties": { "nombre": "PRIMARIA GENERAL - MARIA ENRIQUETA CAMARILLO", "domicilio": "ANDADOR PONCE DE LEON NO.58, CONJ POPULAR HAB ERMITA ZARAGOZA, DELEGACION IZTAPALAPA, MEXICO DF.", "colonia": "ERMITA ZARAGOZA (U HAB) I", "alcaldia": "IZTAPALAPA" }, "geometry": { "type": "Point", "coordinates": [ -99.002328999900001, 19.365758999951002 ] } },
{ "type": "Feature", "properties": { "nombre": "SECUNDARIA GENERAL - LIBRADO RIVERA GODINEZ", "domicilio": "BATALLA DE OJITOS S/N, U HAB EJERCITO DE OTE II ISSSTE, DELEGACION IZTAPALAPA, MEXICO DF.", "colonia": "ALVARO OBREGON_(FRACC)", "alcaldia": "IZTAPALAPA" }, "geometry": { "type": "Point", "coordinates": [ -99.037160999939999, 19.3763479998 ] } },
{ "type": "Feature", "properties": { "nombre": "PRIMARIA GENERAL - ROSARIO MA. GUTIERREZ ESKILDSEN", "domicilio": "GERMANIO NO.98 Y SILICIO, EL MANTO, DELEGACION IZTAPALAPA, MEXICO DF.", "colonia": "SAN JUAN CERRO (PJE)", "alcaldia": "IZTAPALAPA" }, "geometry": { "type": "Point", "coordinates": [ -99.081562000009995, 19.346448000260001 ] } },
{ "type": "Feature", "properties": { "nombre": "PRIMARIA GENERAL - REPUBLICA DE INDONESIA", "domicilio": "CATARROJA NO.78, CERRO DE LA ESTRELLA, DELEGACION IZTAPALAPA, MEXICO DF.", "colonia": "CERRO DE LA ESTRELLA I", "alcaldia": "IZTAPALAPA" }, "geometry": { "type": "Point", "coordinates": [ -99.073578000050006, 19.32589000003 ] } },
{ "type": "Feature", "properties": { "nombre": "PREESCOLAR GENERAL CON SERVICIO ASISTENCIAL - AYAQUEMETL", "domicilio": "MORELOS ESQ MONTERREY, EMILIANO ZAPATA 2A SECCION, DELEGACION TLAHUAC, MEXICO DF.", "colonia": "EMILIANO ZAPATA 2A", "alcaldia": "TLAHUAC" }, "geometry": { "type": "Point", "coordinates": [ -98.968751495920003, 19.207772344950001 ] } },
{ "type": "Feature", "properties": { "nombre": "PRIMARIA GENERAL - INGENIERO JUAN DE DIOS BATIZ", "domicilio": "AV DE LA CIMA Y RIO SAN JAVIER, CONJ HAB ACUEDUCTO DE GUADALUPE, DELEGACION GUSTAVO A. MADERO, MEXICO DF.", "colonia": "ACUEDUCTO DE GUADALUPE (U HAB)", "alcaldia": "GUSTAVO A. MADERO" }, "geometry": { "type": "Point", "coordinates": [ -99.145846083519999, 19.525005810410001 ] } },
{ "type": "Feature", "properties": { "nombre": "PRIMARIA GENERAL - PROFR. LAUREANO JIMENEZ Y CORIA", "domicilio": "AV MIGUEL BERNARD NO 41, BARRIO LA PURISIMA TICOMAN, DELEGACION GUSTAVO A. MADERO, MEXICO DF.", "colonia": "LA PURISIMA TICOMAN (BARR)", "alcaldia": "GUSTAVO A. MADERO" }, "geometry": { "type": "Point", "coordinates": [ -99.141642999539997, 19.513415000039998 ] } },
{ "type": "Feature", "properties": { "nombre": "PREESCOLAR GENERAL - LEONA VICARIO", "domicilio": "NORTE 13 A NO 5331, NUEVA VALLEJO, DELEGACION GUSTAVO A. MADERO, MEXICO DF.", "colonia": "NUEVA VALLEJO", "alcaldia": "GUSTAVO A. MADERO" }, "geometry": { "type": "Point", "coordinates": [ -99.145186000099997, 19.486371000369999 ] } },
{ "type": "Feature", "properties": { "nombre": "PREESCOLAR GENERAL - ADOLFO RUIZ CORTINEZ", "domicilio": "TEJAMANIL Y ZIHUATLAN, PEDREGAL DE SANTO DOMINGO, DELEGACION COYOACAN, MEXICO DF.", "colonia": "PEDREGAL DE STO DOMINGO VII", "alcaldia": "COYOACAN" }, "geometry": { "type": "Point", "coordinates": [ -99.17002100000964, 19.3186146479079 ] } },
{ "type": "Feature", "properties": { "nombre": "PRIMARIA GENERAL - KALPILLI", "domicilio": "LIC L CASTILLO LEDON NO 121, CUAJIMALPA, DELEGACION CUAJIMALPA DE MORELOS, MEXICO DF.", "colonia": "SAN PEDRO CUAJIMALPA (PBLO)", "alcaldia": "CUAJIMALPA DE MORELOS" }, "geometry": { "type": "Point", "coordinates": [ -99.297276999933558, 19.360607999950268 ] } },
{ "type": "Feature", "properties": { "nombre": "PREESCOLAR GENERAL - GABINO A PALMA", "domicilio": "CONCORDIA S/N, CHIMALPA, DELEGACION CUAJIMALPA DE MORELOS, MEXICO DF.", "colonia": "SAN PABLO CHIMALPA (PBLO)", "alcaldia": "CUAJIMALPA DE MORELOS" }, "geometry": { "type": "Point", "coordinates": [ -99.318289999978916, 19.350935999886641 ] } },
{ "type": "Feature", "properties": { "nombre": "ESCUELA SECUNDARIA TECNICA 78", "domicilio": "CAMPO MOLUCO ESQUINA CAMPO VERDE, SAN BARTOLO CACAHUALTONGO, DELEGACION AZCAPOTZALCO, MEXICO DF.", "colonia": "SAN ANTONIO (FRACC)", "alcaldia": "AZCAPOTZALCO" }, "geometry": { "type": "Point", "coordinates": [ -99.204478000015101, 19.479877999936999 ] } },
{ "type": "Feature", "properties": { "nombre": "SECUNDARIA GENERAL - REPUBLICA DEMOCRATICA ALEMANA", "domicilio": "LATONEROS NO 107, TRABAJADORES DEL HIERRO, DELEGACION AZCAPOTZALCO, MEXICO DF.", "colonia": "TRABAJADORES DEL HIERRO", "alcaldia": "AZCAPOTZALCO" }, "geometry": { "type": "Point", "coordinates": [ -99.150866523119035, 19.47934721134488 ] } },
{ "type": "Feature", "properties": { "nombre": "PREESCOLAR GENERAL - ITZEL LUCERO", "domicilio": "AV. XOCOYOTE S/N ENTRE XANES Y XALPATLAH, ARENAL 4A SECC, DELEGACION VENUSTIANO CARRANZA, MEXICO DF.", "colonia": "EL ARENAL 4A SECCION", "alcaldia": "VENUSTIANO CARRANZA" }, "geometry": { "type": "Point", "coordinates": [ -99.058165964479997, 19.43108553659 ] } },
{ "type": "Feature", "properties": { "nombre": "PRIMARIA GENERAL - GRAL. FRANCISCO J. MUJICA", "domicilio": "ROMAN LUGO Y ERNESTO P URUCHURTU, ADOLFO LOPEZ MATEOS, DELEGACION VENUSTIANO CARRANZA, MEXICO DF.", "colonia": "ADOLFO LOPEZ MATEOS", "alcaldia": "VENUSTIANO CARRANZA" }, "geometry": { "type": "Point", "coordinates": [ -99.07188462917, 19.42197695806 ] } },
{ "type": "Feature", "properties": { "nombre": "PRIMARIA GENERAL - DR. MIGUEL SILVA", "domicilio": "AV EDUARDO MOLINA NO 43, 20 DE NOVIEMBRE, DELEGACION VENUSTIANO CARRANZA, MEXICO DF.", "colonia": "MICHOACANA", "alcaldia": "VENUSTIANO CARRANZA" }, "geometry": { "type": "Point", "coordinates": [ -99.111826000060006, 19.445955000489999 ] } },
{ "type": "Feature", "properties": { "nombre": "PRIMARIA GENERAL - PROFR. CALIXTO ANTONIO RODRIGUEZ FLORES", "domicilio": "CALLE 28 B Y AV CENTRAL, SAN JOSE DE LA ESCALERA, DELEGACION GUSTAVO A. MADERO, MEXICO DF.", "colonia": "SAN JOSE DE LA ESCALERA", "alcaldia": "GUSTAVO A. MADERO" }, "geometry": { "type": "Point", "coordinates": [ -99.165839390490007, 19.526679394489999 ] } },
{ "type": "Feature", "properties": { "nombre": "INTERVENCION TEMPRANA, PREESCOLAR, PRIMARIA Y CAPACITACION LABORAL ESPECIAL - CENTRO DE ATENCION MULTIPLE 39", "domicilio": "MORAS 634, DEL VALLE, DELEGACION BENITO JUAREZ, MEXICO DF..", "colonia": "DEL VALLE VII", "alcaldia": "BENITO JUAREZ" }, "geometry": { "type": "Point", "coordinates": [ -99.174996000003162, 19.368835999778149 ] } },
{ "type": "Feature", "properties": { "nombre": "SECUNDARIA GENERAL - SECUNDARIA FEDERAL", "domicilio": "CALLE DE VIENA NUM. 121-B, EL CARMEN, DELEGACION COYOACAN, MEXICO DF.", "colonia": "DEL CARMEN", "alcaldia": "COYOACAN" }, "geometry": { "type": "Point", "coordinates": [ -99.162105999759902, 19.35665699977104 ] } },
{ "type": "Feature", "properties": { "nombre": "PRIMARIA GENERAL - MAO TSE TUNG", "domicilio": "SANTOS DEGOLLADO NO 16, BENITO JUAREZ, DELEGACION IZTACALCO, MEXICO DF.", "colonia": "CAMPAMENTO 2 DE OCTUBRE I", "alcaldia": "IZTACALCO" }, "geometry": { "type": "Point", "coordinates": [ -99.113428183140002, 19.383290139869001 ] } },
{ "type": "Feature", "properties": { "nombre": "ESCUELA SECUNDARIA TECNICA 118", "domicilio": "CALLE EMILIANO ZAPATA S/N, BOSQUE RESIDENCIAL DEL SUR, DELEGACION XOCHIMILCO, MEXICO DF.", "colonia": "SAN LORENZO", "alcaldia": "XOCHIMILCO" }, "geometry": { "type": "Point", "coordinates": [ -99.124642908479998, 19.278084117100001 ] } },
{ "type": "Feature", "properties": { "nombre": "PRIMARIA GENERAL - INDEPENDENCIA ECONOMICA DE MEXICO", "domicilio": "AV DIAZ ORDAZ S/N, SAN JUAN MOYOTEPEC, DELEGACION XOCHIMILCO, MEXICO DF.", "colonia": "SAN GREGORIO ATLAPULCO (PBLO)", "alcaldia": "XOCHIMILCO" }, "geometry": { "type": "Point", "coordinates": [ -99.064132000110007, 19.258002000219999 ] } },
{ "type": "Feature", "properties": { "nombre": "ESCUELA SECUNDARIA DIURNA NO 326", "domicilio": "VOLCAN JORULLO Y COFRE DE PEROE, LA PRADERA, DELEGACION GUSTAVO A. MADERO, MEXICO DF.", "colonia": "LA PRADERA", "alcaldia": "GUSTAVO A. MADERO" }, "geometry": { "type": "Point", "coordinates": [ -99.066725000009995, 19.475326000300001 ] } },
{ "type": "Feature", "properties": { "nombre": "PRIMARIA GENERAL - GRAL. LAZARO CARDENAS", "domicilio": "GRAL LAZARO CARDENAS NO 105, UNIDAD LINDAVISTA VALLEJO, DELEGACION GUSTAVO A. MADERO, MEXICO DF.", "colonia": "PROGRESO NACIONAL II", "alcaldia": "GUSTAVO A. MADERO" }, "geometry": { "type": "Point", "coordinates": [ -99.155533, 19.51688699999 ] } },
{ "type": "Feature", "properties": { "nombre": "ESCUELA SECUNDARIA TECNICA 66", "domicilio": "CALLE 6 S/N Y CIRCUNVALACION, CUCHILLA PANTITLAN, DELEGACION VENUSTIANO CARRANZA, MEXICO DF.", "colonia": "CUCHILLA PANTITLAN", "alcaldia": "VENUSTIANO CARRANZA" }, "geometry": { "type": "Point", "coordinates": [ -99.057918435519994, 19.42236370825 ] } },
{ "type": "Feature", "properties": { "nombre": "PREESCOLAR GENERAL - AURORA REYES", "domicilio": "CALZADA DEL HUESO Y PERIFERICO, RINCONADA COAPA 2A SECC, DELEGACION TLALPAN, MEXICO DF.", "colonia": "HUESO PERIFERICO-ISSSFAM NO. 7 (U HABS)", "alcaldia": "TLALPAN" }, "geometry": { "type": "Point", "coordinates": [ -99.101311200309993, 19.299914185900001 ] } },
{ "type": "Feature", "properties": { "nombre": "SECUNDARIA GENERAL - DON MIGUEL HIDALGO Y COSTILLA", "domicilio": "MONEDA NO 13, TLALPAN, DELEGACION TLALPAN, MEXICO DF.", "colonia": "TLALPAN CENTRO", "alcaldia": "TLALPAN" }, "geometry": { "type": "Point", "coordinates": [ -99.169212024079997, 19.289808670839999 ] } },
{ "type": "Feature", "properties": { "nombre": "TELESECUNDARIA 39", "domicilio": "POPOCATEPETL 47 Y TRES VIRGENES, LA PRADERA, DELEGACION GUSTAVO A. MADERO, MEXICO DF.", "colonia": "LA PRADERA", "alcaldia": "GUSTAVO A. MADERO" }, "geometry": { "type": "Point", "coordinates": [ -99.063925549339999, 19.4734414005 ] } },
{ "type": "Feature", "properties": { "nombre": "PREESCOLAR GENERAL - PROFR. ANTONIO BARBOSA HELDT", "domicilio": "KIOCA Y AV CENTRAL, EUZKADI, DELEGACION AZCAPOTZALCO, MEXICO DF.", "colonia": "EUZKADI", "alcaldia": "AZCAPOTZALCO" }, "geometry": { "type": "Point", "coordinates": [ -99.160707715780262, 19.476971940911259 ] } },
{ "type": "Feature", "properties": { "nombre": "PRIMARIA GENERAL - TEMACHTIANI", "domicilio": "ALDANA NO 28, AMPLIACION COSMOPOLITA, DELEGACION AZCAPOTZALCO, MEXICO DF.", "colonia": "LOS REYES (BARR)", "alcaldia": "AZCAPOTZALCO" }, "geometry": { "type": "Point", "coordinates": [ -99.185475999916562, 19.485552999889752 ] } },
{ "type": "Feature", "properties": { "nombre": "PRIMARIA GENERAL - MAESTRO FEDERICO ALVAREZ", "domicilio": "EJE LAZARO CARDENAS NO 720, POSTAL, DELEGACION BENITO JUAREZ, MEXICO DF..", "colonia": "PORTALES III", "alcaldia": "BENITO JUAREZ" }, "geometry": { "type": "Point", "coordinates": [ -99.150987338173522, 19.36471720993756 ] } },
{ "type": "Feature", "properties": { "nombre": "PRIMARIA GENERAL - REPUBLICA DE COREA", "domicilio": "RABAUL Y MANZANA 3 S/N, UNIDAD CUITLAHUAC, DELEGACION AZCAPOTZALCO, MEXICO DF.", "colonia": "CUITLHUAC 1 Y 2 (U HAB)", "alcaldia": "AZCAPOTZALCO" }, "geometry": { "type": "Point", "coordinates": [ -99.167770999813158, 19.473323999951891 ] } },
{ "type": "Feature", "properties": { "nombre": "INTERVENCION TEMPRANA, PREESCOLAR, PRIMARIA Y CAPACITACION LABORAL ESPECIAL - CENTRO DE ATENCION MULTIPLE 17  M", "domicilio": "FCO  MARQUEZ NO  144, CONDESA, DELEGACION CUAUHTEMOC, MEXICO DF.", "colonia": "CONDESA", "alcaldia": "CUAUHTEMOC" }, "geometry": { "type": "Point", "coordinates": [ -99.180113000114758, 19.412284000265 ] } },
{ "type": "Feature", "properties": { "nombre": "PREESCOLAR GENERAL - BATALLON DE SAN BLAS", "domicilio": "RICARDO FLORES MAGON NO 77, UNIDAD NONOALCO TLATELOLCO, DELEGACION CUAUHTEMOC, MEXICO DF.", "colonia": "BUENAVISTA I", "alcaldia": "CUAUHTEMOC" }, "geometry": { "type": "Point", "coordinates": [ -99.146213155691342, 19.452487675638309 ] } },
{ "type": "Feature", "properties": { "nombre": "PREESCOLAR GENERAL - CINCO DE MAYO", "domicilio": "J. MARIA BUSTILLOS NO 10, ALGARIN, DELEGACION CUAUHTEMOC, MEXICO DF.", "colonia": "ALGARIN", "alcaldia": "CUAUHTEMOC" }, "geometry": { "type": "Point", "coordinates": [ -99.141642999966763, 19.40520199989593 ] } },
{ "type": "Feature", "properties": { "nombre": "SECUNDARIA TECNICA INDUSTRIAL - ESCUELA SECUNDARIA TECNICA 8", "domicilio": null, "colonia": "ESCANDON I", "alcaldia": "MIGUEL HIDALGO" }, "geometry": { "type": "Point", "coordinates": [ -99.182686999955678, 19.406790000192331 ] } },
{ "type": "Feature", "properties": { "nombre": "PRIMARIA GENERAL - PROFR. ALFREDO BASURTO GARCIA", "domicilio": "SAN HERMILO Y SAN PASCASIO S/N, PEDREGAL DE SANTA URSULA, DELEGACION COYOACAN, MEXICO DF.", "colonia": "PEDREGAL DE SANTA URSULA III", "alcaldia": "COYOACAN" }, "geometry": { "type": "Point", "coordinates": [ -99.158103732157201, 19.311769399059578 ] } },
{ "type": "Feature", "properties": { "nombre": "PREESCOLAR GENERAL - EMILIANO ROBLES LEON", "domicilio": "BARRANCA DE PILARES S/N, COLONIA LAS AGUILAS, DELEGACION ALVARO OBREGON, MEXICO DF.", "colonia": "AGUILAS PILARES", "alcaldia": "ALVARO OBREGON" }, "geometry": { "type": "Point", "coordinates": [ -99.204053999731642, 19.355050999730071 ] } },
{ "type": "Feature", "properties": { "nombre": "PREESCOLAR GENERAL - YOACALLI", "domicilio": "MAR DE LOS VAPORES Y CRATER KEPLER, AMPLIACION SELENE, DELEGACION TLAHUAC, MEXICO DF.", "colonia": "SELENE (AMPL)", "alcaldia": "TLAHUAC" }, "geometry": { "type": "Point", "coordinates": [ -98.996911679510006, 19.285449633460001 ] } },
{ "type": "Feature", "properties": { "nombre": "PRIMARIA GENERAL - ESTADO DE AGUASCALIENTES", "domicilio": "VASCO DE QUIROGA Y PASEO DEL MOLINO, COLONIA AMPLIACION LA MEXICANA, DELEGACION ALVARO OBREGON, MEXICO DF.", "colonia": "LA MEXICANA (AMPL)", "alcaldia": "ALVARO OBREGON" }, "geometry": { "type": "Point", "coordinates": [ -99.228916711362004, 19.38455659779823 ] } },
{ "type": "Feature", "properties": { "nombre": "PRIMARIA GENERAL - PROFR. QUINTIL GOMEZ ALVAREZ", "domicilio": "PTO MAZATLAN Y PAPANTLA S/N, AMPLIACION CASAS ALEMAN, DELEGACION GUSTAVO A. MADERO, MEXICO DF.", "colonia": "CASAS ALEMAN (AMPL) I", "alcaldia": "GUSTAVO A. MADERO" }, "geometry": { "type": "Point", "coordinates": [ -99.081823131370001, 19.478489762 ] } },
{ "type": "Feature", "properties": { "nombre": "ESCUELA SECUNDARIA TECNICA 2", "domicilio": "EJE CENTRAL LAZARO CARDENAS NO. 10, JUAREZ, DELEGACION CUAUHTEMOC, MEXICO DF.", "colonia": "SAN SIMON TOLNAHUAC", "alcaldia": "CUAUHTEMOC" }, "geometry": { "type": "Point", "coordinates": [ -99.141427000032238, 19.455775999748379 ] } },
{ "type": "Feature", "properties": { "nombre": "SECUNDARIA GENERAL -  MTRO. JUAN G. HOLGUIN", "domicilio": "LIVERPOOL NO 40, JUAREZ, DELEGACION CUAUHTEMOC, MEXICO DF.", "colonia": "JUAREZ", "alcaldia": "CUAUHTEMOC" }, "geometry": { "type": "Point", "coordinates": [ -99.160940003534634, 19.425783998728349 ] } },
{ "type": "Feature", "properties": { "nombre": "PRIMARIA GENERAL - JUAN ANTONIO DE LA FUENTE", "domicilio": "PLAZA DEL ARBOL NO 28 Y PLAZA MAYOR, DOCTOR ALFONSO ORTIZ TIRADO, DELEGACION IZTAPALAPA, MEXICO DF.", "colonia": "DR ALFONSO ORTIZ TIRADO", "alcaldia": "IZTAPALAPA" }, "geometry": { "type": "Point", "coordinates": [ -99.078148000019993, 19.386885999970001 ] } },
{ "type": "Feature", "properties": { "nombre": "PRIMARIA GENERAL - PROFR. CARLOS FUENTES MARTINEZ", "domicilio": "VOLCAN IMPALA NO 10, AMPL PROVIDENCIA, DELEGACION GUSTAVO A. MADERO, MEXICO DF.", "colonia": "PROVIDENCIA (AMPL)", "alcaldia": "GUSTAVO A. MADERO" }, "geometry": { "type": "Point", "coordinates": [ -99.068973999939999, 19.47975000013 ] } },
{ "type": "Feature", "properties": { "nombre": "PRIMARIA GENERAL - LEYES DE REFORMA", "domicilio": "CALLE 607 PLAZA 14, U SAN JUAN DE ARAGON, DELEGACION GUSTAVO A. MADERO, MEXICO DF.", "colonia": "SAN JUAN DE ARAGON 3A SECCION (U HAB) II", "alcaldia": "GUSTAVO A. MADERO" }, "geometry": { "type": "Point", "coordinates": [ -99.068255999979996, 19.44762899993 ] } },
{ "type": "Feature", "properties": { "nombre": "SECUNDARIA TECNICA 47", "domicilio": "AV INSURGENTES NORTE 1114, TLACAMACA, DELEGACION GUSTAVO A. MADERO, MEXICO DF.", "colonia": "TLACAMACA", "alcaldia": "GUSTAVO A. MADERO" }, "geometry": { "type": "Point", "coordinates": [ -99.135146999989999, 19.474592999990001 ] } },
{ "type": "Feature", "properties": { "nombre": "PREESCOLAR GENERAL - LAURO AGUIRRE", "domicilio": "GUSTAVO E. CAMPA NO 94, COLONIA GUADALUPE INN, DELEGACION ALVARO OBREGON, MEXICO DF.", "colonia": "GUADALUPE INN", "alcaldia": "ALVARO OBREGON" }, "geometry": { "type": "Point", "coordinates": [ -99.186620999952922, 19.36104099992302 ] } },
{ "type": "Feature", "properties": { "nombre": "ESCUELA SECUNDARIA TECNICA 56", "domicilio": "AV SANTA CRUZ S/N, SAN MIGUEL TOPILEJO, DELEGACION TLAHUAC, MEXICO DF.", "colonia": "SAN MIGUEL TOPILEJO (PBLO)", "alcaldia": "TLALPAN" }, "geometry": { "type": "Point", "coordinates": [ -99.141060000050004, 19.197331999780001 ] } },
{ "type": "Feature", "properties": { "nombre": "PREESCOLAR GENERAL - ERASMO CASTELLANOS QUINTO", "domicilio": "MANUEL GONZALEZ NO 108, UNIDAD NONOALCO TLATELOLCO, DELEGACION CUAUHTEMOC, MEXICO DF.", "colonia": "EX HIPODROMO DE PERALVILLO", "alcaldia": "CUAUHTEMOC" }, "geometry": { "type": "Point", "coordinates": [ -99.135295999874359, 19.454018000397731 ] } },
{ "type": "Feature", "properties": { "nombre": "SECUNDARIA GENERAL - TEUTLI", "domicilio": "AV DE LAS PALMAS S/N, BARRIO TENANTITLA TECOMITL, DELEGACION MILPA ALTA, MEXICO DF.", "colonia": "SAN ANTONIO TECOMITL (PBLO)", "alcaldia": "MILPA ALTA" }, "geometry": { "type": "Point", "coordinates": [ -98.99510700015, 19.217839999950002 ] } },
{ "type": "Feature", "properties": { "nombre": "PRIMARIA GENERAL - LIC. FELIPE RIVERA", "domicilio": "DR ANDRADE NO 367, BUENOS AIRES, DELEGACION CUAUHTEMOC, MEXICO DF.", "colonia": "DOCTORES V", "alcaldia": "CUAUHTEMOC" }, "geometry": { "type": "Point", "coordinates": [ -99.147591999865881, 19.410066000062479 ] } },
{ "type": "Feature", "properties": { "nombre": "PRIMARIA GENERAL - JOSE MARIA IGLESIAS", "domicilio": "COLIMA NO 383, ROMA NORTE, DELEGACION CUAUHTEMOC, MEXICO DF.", "colonia": "ROMA NORTE I", "alcaldia": "CUAUHTEMOC" }, "geometry": { "type": "Point", "coordinates": [ -99.170162999978416, 19.417733999714191 ] } },
{ "type": "Feature", "properties": { "nombre": "PREESCOLAR GENERAL - 21 DE ABRIL", "domicilio": "AV STA ANA Y ROSA MA SEQUEIRA, AMPL SAN FRANCISCO CULHUACAN, DELEGACION COYOACAN, MEXICO DF.", "colonia": "CROC CULHUACAN SECC 6 (U HAB)", "alcaldia": "COYOACAN" }, "geometry": { "type": "Point", "coordinates": [ -99.120734705518998, 19.328788545925789 ] } },
{ "type": "Feature", "properties": { "nombre": "SECUNDARIA GENERAL - JUAN JACOBO ROUSSEAU", "domicilio": "AV EXPLORADORES Y CARLOS PACHECO, U HAB EJERCITO DE OTE II ISSSTE, DELEGACION IZTAPALAPA, MEXICO DF.", "colonia": "EJERCITO DE ORIENTE (U HAB) II", "alcaldia": "IZTAPALAPA" }, "geometry": { "type": "Point", "coordinates": [ -99.026356146490002, 19.367414537239998 ] } },
{ "type": "Feature", "properties": { "nombre": "PRIMARIA GENERAL - PROFR. JOSE PALOMAREZ QUIROS", "domicilio": "JOAQUIN IBARGUEN NO.2,  HAB EJERCITO DE OTE II ISSSTE, DELEGACION IZTAPALAPA, MEXICO DF.", "colonia": "EJERCITO DE ORIENTE (U HAB) II", "alcaldia": "IZTAPALAPA" }, "geometry": { "type": "Point", "coordinates": [ -99.027502425850003, 19.368237812579999 ] } },
{ "type": "Feature", "properties": { "nombre": "PREESCOLAR GENERAL - ITZAMARAII", "domicilio": "GASTON SANTOS S/N LOMA ALTA, SAN MIGUEL TEOTONGO, DELEGACION IZTAPALAPA, MEXICO DF.", "colonia": "SAN MIGUEL TEOTONGO III", "alcaldia": "IZTAPALAPA" }, "geometry": { "type": "Point", "coordinates": [ -98.984882000080006, 19.341582999770001 ] } },
{ "type": "Feature", "properties": { "nombre": "PREESCOLAR GENERAL - GENERAL FRANCISCO VILLA", "domicilio": "TOMAS URBINA,  FRANCISCO VILLA, DELEGACION IZTAPALAPA, MEXICO DF.", "colonia": "FRANCISCO VILLA", "alcaldia": "IZTAPALAPA" }, "geometry": { "type": "Point", "coordinates": [ -99.060047999990005, 19.339305999920001 ] } },
{ "type": "Feature", "properties": { "nombre": "PREESCOLAR GENERAL - ROSARIO CASTELLANOS", "domicilio": "ASISTENCIA PUBLICA Y NORTE 3, FEDERAL, DELEGACION VENUSTIANO CARRANZA, MEXICO DF.", "colonia": "INDUSTRIAL PUERTO AEREO (FRACC)", "alcaldia": "VENUSTIANO CARRANZA" }, "geometry": { "type": "Point", "coordinates": [ -99.090661668440006, 19.42329958142 ] } },
{ "type": "Feature", "properties": { "nombre": "PRIMARIA GENERAL - BANDERA NACIONAL", "domicilio": "ORIENTE 178 Y SUR 107'A' NO.228, MEXICALTZINGO, DELEGACION IZTAPALAPA, MEXICO DF.", "colonia": "MEXICALTZINGO (PBLO)", "alcaldia": "IZTAPALAPA" }, "geometry": { "type": "Point", "coordinates": [ -99.118387999969997, 19.359088999930002 ] } },
{ "type": "Feature", "properties": { "nombre": "SECUNDARIA PARA TRABAJADORES - DANIEL COSIO VILLEGAS", "domicilio": "REP. DE BOLIVIA NUM 33, CENTRO, DELEGACION CUAUHTEMOC, MEXICO DF.", "colonia": "CENTRO III", "alcaldia": "CUAUHTEMOC" }, "geometry": { "type": "Point", "coordinates": [ -99.131107999792178, 19.439124999638459 ] } },
{ "type": "Feature", "properties": { "nombre": "PREESCOLAR GENERAL CON SERVICIO ASISTENCIAL - CAPUTZIHIL", "domicilio": "ALBERTO BRANIFF Y CALZ IGNACIO ZARAGOZA,AVIACION CIVIL, DELEGACION VENUSTIANO CARRANZA, MEXICO DF.", "colonia": "AVIACION CIVIL", "alcaldia": "VENUSTIANO CARRANZA" }, "geometry": { "type": "Point", "coordinates": [ -99.079063441390005, 19.410586025770002 ] } },
{ "type": "Feature", "properties": { "nombre": "PRIMARIA GENERAL - MTRO. JOSE MARIANO PONTON", "domicilio": "ECONOMIA Y ANTROPOLOGIA E HIST, FEDERAL, DELEGACION VENUSTIANO CARRANZA, MEXICO DF.", "colonia": "FEDERAL", "alcaldia": "VENUSTIANO CARRANZA" }, "geometry": { "type": "Point", "coordinates": [ -99.086068403699997, 19.416085276170001 ] } },
{ "type": "Feature", "properties": { "nombre": "PRIMARIA GENERAL - PROFR. JUAN B. TIJERINA", "domicilio": "ANTONIO ESTEVEZ S/N, U HAB EJERCITO DE OTE II ISSSTE, DELEGACION IZTAPALAPA, MEXICO DF.", "colonia": "EJERCITO DE ORIENTE (U HAB) I", "alcaldia": "IZTAPALAPA" }, "geometry": { "type": "Point", "coordinates": [ -99.024106000109995, 19.366015000139999 ] } },
{ "type": "Feature", "properties": { "nombre": "PRIMARIA GENERAL - FRANCISCO GABILONDO SOLER", "domicilio": "AV TEZONTLE Y CORALES S/N, UNIDAD INFONAVIT IZTACALCO, DELEGACION IZTACALCO, MEXICO DF.", "colonia": "INFONAVIT IZTACALCO (U HAB) I", "alcaldia": "IZTACALCO" }, "geometry": { "type": "Point", "coordinates": [ -99.109381545529999, 19.38766156901 ] } },
{ "type": "Feature", "properties": { "nombre": "PRIMARIA GENERAL - PROFR. MARCELINO RENTERIA", "domicilio": "CALLE SOL NO.2 ESQ. LOPEZ PORTILLO, CONSEJO AGRARISTA MEXICANO, DELEGACION IZTAPALAPA, MEXICO DF.", "colonia": "CONSEJO AGRARISTA MEXICANO I", "alcaldia": "IZTAPALAPA" }, "geometry": { "type": "Point", "coordinates": [ -99.055039984079997, 19.325167189030001 ] } },
{ "type": "Feature", "properties": { "nombre": "PRIMARIA GENERAL - PROFR. VICTOR MANUEL MANZANO DELGADO", "domicilio": "CALLE KANTUNIL NO 400, PEDREGAL DE SAN NICOLAS, DELEGACION TLALPAN, MEXICO DF.", "colonia": "PEDREGAL DE SN NICOLAS 3A SECC", "alcaldia": "TLALPAN" }, "geometry": { "type": "Point", "coordinates": [ -99.235937999979996, 19.282894999980002 ] } },
{ "type": "Feature", "properties": { "nombre": "PRIMARIA GENERAL - PROFR. PEDRO LOREDO ORTEGA", "domicilio": "SINANCHE NO 10, PEDREGAL DE SAN NICOLAS, DELEGACION TLALPAN, MEXICO DF.", "colonia": "PEDREGAL DE SN NICOLAS 1A SECC", "alcaldia": "TLALPAN" }, "geometry": { "type": "Point", "coordinates": [ -99.231945508370003, 19.29276542341 ] } },
{ "type": "Feature", "properties": { "nombre": "PRIMARIA GENERAL - PATRIA Y LIBERTAD", "domicilio": "UH FUENTES BROTANTES ATRAS BL 1, FUENTES BROTANTES, DELEGACION TLALPAN, MEXICO DF.", "colonia": "FUENTES BROTANTES MIGUEL HIDALGO (U HAB)", "alcaldia": "TLALPAN" }, "geometry": { "type": "Point", "coordinates": [ -99.185630814820001, 19.282795073789998 ] } },
{ "type": "Feature", "properties": { "nombre": "PREESCOLAR GENERAL - IGNACIO ALLENDE", "domicilio": "CALLE 111 Y 104 S/N, UNIDAD MODELO, DELEGACION IZTAPALAPA, MEXICO DF.", "colonia": "MODELO (U)", "alcaldia": "IZTAPALAPA" }, "geometry": { "type": "Point", "coordinates": [ -99.123908019530006, 19.367745003258001 ] } },
{ "type": "Feature", "properties": { "nombre": "PREESCOLAR GENERAL CON SERVICIO ASISTENCIAL - YOLLALIA", "domicilio": "GAVILAN S/N, SAN MIGUEL, DELEGACION IZTAPALAPA, MEXICO DF.", "colonia": "SAN MIGUEL (BARR)", "alcaldia": "IZTAPALAPA" }, "geometry": { "type": "Point", "coordinates": [ -99.078075999950002, 19.36190700014 ] } },
{ "type": "Feature", "properties": { "nombre": "SECUNDARIA GENERAL - JOVITA A. ELGUERO", "domicilio": "CANARIO Y DIVISION DEL NORTE, COLONIA BELLA VISTA, DELEGACION ALVARO OBREGON, MEXICO DF.", "colonia": "TOLTECA", "alcaldia": "ALVARO OBREGON" }, "geometry": { "type": "Point", "coordinates": [ -99.194510000076775, 19.393183000478921 ] } },
{ "type": "Feature", "properties": { "nombre": "TELESECUNDARIA 3", "domicilio": "RIO MIXCOAC OTE Y CIRCUITO 3, COLONIA HAB LOMAS DE PLATEROS, DELEGACION ALVARO OBREGON, MEXICO DF", "colonia": "LOMAS DE PLATEROS (U HAB) I", "alcaldia": "ALVARO OBREGON" }, "geometry": { "type": "Point", "coordinates": [ -99.207677999882264, 19.36817300005994 ] } },
{ "type": "Feature", "properties": { "nombre": "PRIMARIA GENERAL - PLAN SEXENAL", "domicilio": "JAVIER ROJO GOMEZ NO 22, PUEBLO SAN PABLO OZTOTEPEC, DELEGACION MILPA ALTA, MEXICO DF.", "colonia": null, "alcaldia": null }, "geometry": { "type": "Point", "coordinates": [ -99.072729999960004, 19.186510000409999 ] } },
{ "type": "Feature", "properties": { "nombre": "PREESCOLAR GENERAL - JULIO VERNE", "domicilio": "AV. TEZONTLE Y SUR 161, LIC CARLOS ZAPATA VELA 1A SECC, DELEGACION IZTACALCO, MEXICO DF.", "colonia": "RAMOS MILLAN BRAMADERO I", "alcaldia": "IZTACALCO" }, "geometry": { "type": "Point", "coordinates": [ -99.094937587730001, 19.391119082576999 ] } },
{ "type": "Feature", "properties": { "nombre": "PRIMARIA GENERAL - REPUBLICA ESPAÑOLA", "domicilio": "CORUÑA NO 311, VIADUCTO PIEDAD, DELEGACION IZTACALCO, MEXICO DF.", "colonia": "NUEVA STA ANITA", "alcaldia": "IZTACALCO" }, "geometry": { "type": "Point", "coordinates": [ -99.125765000019996, 19.4013060001 ] } },
{ "type": "Feature", "properties": { "nombre": "PRIMARIA GENERAL - JOSE MARIA VELASCO", "domicilio": "CALZ SAN JUAN DE ARAGON NO 304, CONSTITUCION DE LA REPUBLICA, DELEGACION GUSTAVO A. MADERO, MEXICO DF.", "colonia": "DM NACIONAL", "alcaldia": "GUSTAVO A. MADERO" }, "geometry": { "type": "Point", "coordinates": [ -99.096368565380004, 19.478203787199998 ] } },
{ "type": "Feature", "properties": { "nombre": "PRIMARIA GENERAL - INSURGENTE MORELOS", "domicilio": "HIDALGO S/N, GUSTAVO A. MADERO, DELEGACION GUSTAVO A. MADERO, MEXICO DF.", "colonia": "ARAGON LA VILLA (ARAGON)", "alcaldia": "GUSTAVO A. MADERO" }, "geometry": { "type": "Point", "coordinates": [ -99.117531426089997, 19.478885815750001 ] } },
{ "type": "Feature", "properties": { "nombre": "INTERVENCION TEMPRANA, PREESCOLAR, PRIMARIA Y CAPACITACION LABORAL ESPECIAL - CENTRO DE ATENCION MULTIPLE 27  M", "domicilio": "XICOTENCATL NO  164, EL CARMEN, DELEGACION COYOACAN, MEXICO DF.", "colonia": "DEL CARMEN", "alcaldia": "COYOACAN" }, "geometry": { "type": "Point", "coordinates": [ -99.153503000024003, 19.35476000023759 ] } },
{ "type": "Feature", "properties": { "nombre": "PRIMARIA GENERAL - FUNDACION DE MEXICO", "domicilio": "PASEO DIOSES AZTECAS U INFO CTM, AMPL SAN FRANCISCO CULHUACAN, DELEGACION COYOACAN, MEXICO DF.", "colonia": "PILOTO CULHUACAN (U HAB)", "alcaldia": "COYOACAN" }, "geometry": { "type": "Point", "coordinates": [ -99.11145400013018, 19.321939000118721 ] } },
{ "type": "Feature", "properties": { "nombre": "SECUNDARIA GENERAL - DELEGACION COYOACAN", "domicilio": "CERRO DEL AGUA Y AV LAS TORRES, MANUEL ROMERO DE TERREROS, DELEGACION COYOACAN, MEXICO DF.", "colonia": "PARQUE SAN ANDRES", "alcaldia": "COYOACAN" }, "geometry": { "type": "Point", "coordinates": [ -99.154596000107475, 19.34372199994613 ] } },
{ "type": "Feature", "properties": { "nombre": "PRIMARIA GENERAL - JOSE SANTOS VALDEZ", "domicilio": "CALZ DE LA VIRGEN 3000, AMPL SAN FRANCISCO CULHUACAN, DELEGACION COYOACAN, MEXICO DF.", "colonia": "ALIANZA POPULAR REVOLUCIONARIA NORTE (U HAB)", "alcaldia": "COYOACAN" }, "geometry": { "type": "Point", "coordinates": [ -99.115081331375535, 19.320326743040241 ] } },
{ "type": "Feature", "properties": { "nombre": "SECUNDARIA GENERAL - VICTOR HUGO", "domicilio": "CERRO DEL CRESTON Y CERRO MEZONTEPEC, CAMPESTRE CHURUBUSCO, DELEGACION COYOACAN, MEXICO DF.", "colonia": "CAMPESTRE CHURUBUSCO", "alcaldia": "COYOACAN" }, "geometry": { "type": "Point", "coordinates": [ -99.130542316331798, 19.34716574630945 ] } },
{ "type": "Feature", "properties": { "nombre": "PRIMARIA GENERAL - MARGARITA MAZA DE JUAREZ", "domicilio": "GOMA NO 163 Y CENTENO, GRANJAS MEXICO, DELEGACION IZTACALCO, MEXICO DF.", "colonia": "GRANJAS MEXICO I", "alcaldia": "IZTACALCO" }, "geometry": { "type": "Point", "coordinates": [ -99.102522000139999, 19.401038000380002 ] } },
{ "type": "Feature", "properties": { "nombre": "PRIMARIA GENERAL - REPUBLICA DE CHECOSLOVAQUIA", "domicilio": "RETORNO 20 S/N, AVANTE, DELEGACION COYOACAN, MEXICO DF.", "colonia": "AVANTE", "alcaldia": "COYOACAN" }, "geometry": { "type": "Point", "coordinates": [ -99.135566172394618, 19.332489769755881 ] } },
{ "type": "Feature", "properties": { "nombre": "PRIMARIA GENERAL - TLALOC", "domicilio": "MATAMOROS NO 1, PUEBLO SAN AGUSTIN OHTENCO, DELEGACION MILPA ALTA, MEXICO DF.", "colonia": "SAN AGUSTIN OHTENCO (PBLO)", "alcaldia": "MILPA ALTA" }, "geometry": { "type": "Point", "coordinates": [ -99.010376684400001, 19.197317999549998 ] } },
{ "type": "Feature", "properties": { "nombre": "PRIMARIA GENERAL - CUICUILCO", "domicilio": "CALLEJON DEL ZAPOTE S/N, ISIDRO FABELA, DELEGACION TLALPAN, MEXICO DF.", "colonia": "ZAPOTE-LUIS DONALDO COLOSIO (U HABS)", "alcaldia": "TLALPAN" }, "geometry": { "type": "Point", "coordinates": [ -99.178977467600006, 19.30045433718 ] } },
{ "type": "Feature", "properties": { "nombre": "PREESCOLAR GENERAL - ENRIQUE DUNANT", "domicilio": "GUADALUPE ENTRE MICHOACAN Y SN. MIGUEL, CHALMA DE GUADALUPE, DELEGACION GUSTAVO A. MADERO, MEXICO DF.", "colonia": "CHALMA DE GUADALUPE II", "alcaldia": "GUSTAVO A. MADERO" }, "geometry": { "type": "Point", "coordinates": [ -99.153036503199999, 19.548532352660001 ] } },
{ "type": "Feature", "properties": { "nombre": "PRIMARIA GENERAL - MTRO. ENRIQUE C. REBSAMEN", "domicilio": "16 DE SEPTIEMBRE Y 20 DE NOV, 25 DE JULIO, DELEGACION GUSTAVO A. MADERO, MEXICO DF.", "colonia": "25 DE JULIO", "alcaldia": "GUSTAVO A. MADERO" }, "geometry": { "type": "Point", "coordinates": [ -99.079263318830002, 19.497831367730001 ] } },
{ "type": "Feature", "properties": { "nombre": "PRIMARIA GENERAL - NICOLAS BRAVO", "domicilio": "AV EJIDO Y BENITO JUAREZ, 25 DE JULIO, DELEGACION GUSTAVO A. MADERO, MEXICO DF.", "colonia": "25 DE JULIO", "alcaldia": "GUSTAVO A. MADERO" }, "geometry": { "type": "Point", "coordinates": [ -99.081131459310001, 19.49558647337 ] } },
{ "type": "Feature", "properties": { "nombre": "PRIMARIA GENERAL - GRAL. MIGUEL NEGRETE", "domicilio": "CALLE 311 S/N, NUEVA ATZACOALCO, DELEGACION GUSTAVO A. MADERO, MEXICO DF.", "colonia": "NUEVA ATZACOALCO II", "alcaldia": "GUSTAVO A. MADERO" }, "geometry": { "type": "Point", "coordinates": [ -99.086393836490004, 19.499352877940002 ] } },
{ "type": "Feature", "properties": { "nombre": "PRIMARIA GENERAL - TATA VASCO", "domicilio": "AV 5 DE MAYO NO 41, VASCO DE QUIROGA, DELEGACION GUSTAVO A. MADERO, MEXICO DF.", "colonia": "SAN JUAN DE ARAGON (PBLO)", "alcaldia": "GUSTAVO A. MADERO" }, "geometry": { "type": "Point", "coordinates": [ -99.084, 19.47145900029 ] } },
{ "type": "Feature", "properties": { "nombre": "PREESCOLAR GENERAL - PROFR. TADEO DE LA GARZA GUTIERREZ", "domicilio": "CINEMATOGRAFIA Y ALFAREROS, UNIDAD INFONAVIT EL ROSARIO, DELEGACION AZCAPOTZALCO, MEXICO DF.", "colonia": "EL ROSARIO A (U HAB)", "alcaldia": "AZCAPOTZALCO" }, "geometry": { "type": "Point", "coordinates": [ -99.206344502968477, 19.510112703287369 ] } },
{ "type": "Feature", "properties": { "nombre": "PRIMARIA GENERAL - MANUEL CERVANTES IMAZ", "domicilio": "NATHAL PESADO NO 8, MIXCOAC, DELEGACION BENITO JUAREZ, MEXICO DF..", "colonia": "MIXCOAC", "alcaldia": "BENITO JUAREZ" }, "geometry": { "type": "Point", "coordinates": [ -99.189902999888119, 19.368811999898231 ] } },
{ "type": "Feature", "properties": { "nombre": "SECUNDARIA GENERAL - JUAN RUIZ DE ALARCON Y MENDOZA", "domicilio": "BUENAVISTA Y 16 DE SEPTIEMBRE, SAN BARTOLO ATEPEHUACAN, DELEGACION GUSTAVO A. MADERO, MEXICO DF.", "colonia": "SAN BARTOLO ATEPEHUACAN (PBLO)", "alcaldia": "GUSTAVO A. MADERO" }, "geometry": { "type": "Point", "coordinates": [ -99.145121651569994, 19.49585704339 ] } },
{ "type": "Feature", "properties": { "nombre": "ESCUELA SECUNDARIA TECNICA 41", "domicilio": "AVS. 549, 506, 553 Y 504 SECC. VECINAL DOS, SAN JUAN DE ARAGON, DELEGACION GUSTAVO A. MADERO, MEXICO DF.", "colonia": "SAN JUAN DE ARAGON 2A SECCION (U HAB) I", "alcaldia": "GUSTAVO A. MADERO" }, "geometry": { "type": "Point", "coordinates": [ -99.086210862599998, 19.452158269920002 ] } },
{ "type": "Feature", "properties": { "nombre": "PRIMARIA GENERAL - WINSTON CHURCHILL", "domicilio": "AV 563 PLAZA 10, U SAN JUAN DE ARAGON, DELEGACION GUSTAVO A. MADERO, MEXICO DF.", "colonia": "SAN JUAN DE ARAGON 2A SECCION (U HAB) I", "alcaldia": "GUSTAVO A. MADERO" }, "geometry": { "type": "Point", "coordinates": [ -99.084921000099996, 19.448751999990002 ] } },
{ "type": "Feature", "properties": { "nombre": "PRIMARIA GENERAL - DR. IGNACIO CHAVEZ", "domicilio": "FUERTE DE GPE.NO.24 AND.1 Y 2, U HAB EJERCITO DE OTE II ISSSTE, DELEGACION IZTAPALAPA, MEXICO DF.", "colonia": "EJERCITO DE AGUA PRIETA", "alcaldia": "IZTAPALAPA" }, "geometry": { "type": "Point", "coordinates": [ -99.035891000020001, 19.37019099978 ] } },
{ "type": "Feature", "properties": { "nombre": "PREESCOLAR GENERAL - PROFRA. CAROLINA PINO CRUZ", "domicilio": "PALMILLA Y AV. JUAREZ S/N, CONSEJO AGRARISTA MEXICANO, DELEGACION IZTAPALAPA, MEXICO DF.", "colonia": "CONSEJO AGRARISTA MEXICANO II", "alcaldia": "IZTAPALAPA" }, "geometry": { "type": "Point", "coordinates": [ -99.051984649369999, 19.326356910249999 ] } },
{ "type": "Feature", "properties": { "nombre": "PREESCOLAR GENERAL - FRAY MARTIN DE VALENCIA", "domicilio": "EMILIANO ZAPATA Y PLAN DE AYALA, SANTA MARIA AZTAHUACAN, DELEGACION IZTAPALAPA, MEXICO DF.", "colonia": "SANTA MARIA AZTAHUACAN (EJ) I", "alcaldia": "IZTAPALAPA" }, "geometry": { "type": "Point", "coordinates": [ -99.032200723909995, 19.357021494047999 ] } },
{ "type": "Feature", "properties": { "nombre": "PRIMARIA GENERAL - PROFR. PRISCILIANO MARTINEZ LOPEZ", "domicilio": "GRAL.SIMON ELIAS GONZALEZ NO.35, JUAN ESCUTIA, DELEGACION IZTAPALAPA, MEXICO DF.", "colonia": "JUAN ESCUTIA I", "alcaldia": "IZTAPALAPA" }, "geometry": { "type": "Point", "coordinates": [ -99.054345254520001, 19.3979232933 ] } },
{ "type": "Feature", "properties": { "nombre": "PRIMARIA GENERAL - GUADALUPE CENICEROS DE PEREZ ZAVALETA", "domicilio": "ANTONIO NORZAGARAY NO.40, CONSTITUCION 1917, DELEGACION IZTAPALAPA, MEXICO DF.", "colonia": "CONSTITUCION DE 1917 II", "alcaldia": "IZTAPALAPA" }, "geometry": { "type": "Point", "coordinates": [ -99.05919299995, 19.348920000010001 ] } },
{ "type": "Feature", "properties": { "nombre": "PREESCOLAR GENERAL CON SERVICIO ASISTENCIAL - TLAYOLLI", "domicilio": "VERACRUZ S/, SAN MIGUEL TEOTONGO, DELEGACION IZTAPALAPA, MEXICO DF.", "colonia": "SAN MIGUEL TEOTONGO III", "alcaldia": "IZTAPALAPA" }, "geometry": { "type": "Point", "coordinates": [ -98.991886999810006, 19.340167000129998 ] } },
{ "type": "Feature", "properties": { "nombre": "SECUNDARIA GENERAL - EZEQUIEL A. CHAVEZ", "domicilio": "EL 14 COBRE Y CANANEA, NICOLAS BRAVO, DELEGACION VENUSTIANO CARRANZA, MEXICO DF.", "colonia": "NICOLAS BRAVO", "alcaldia": "VENUSTIANO CARRANZA" }, "geometry": { "type": "Point", "coordinates": [ -99.122272475849996, 19.45485001138 ] } },
{ "type": "Feature", "properties": { "nombre": "PREESCOLAR GENERAL - ESTATUTO JURIDICO", "domicilio": "JACARANDAS Y COPA DE ORO, CIUDAD JARDIN, DELEGACION COYOACAN, MEXICO DF.", "colonia": "CIUDAD JARDIN", "alcaldia": "COYOACAN" }, "geometry": { "type": "Point", "coordinates": [ -99.145112285998238, 19.333948554972949 ] } },
{ "type": "Feature", "properties": { "nombre": "PRIMARIA GENERAL - EL NIÑO AGRARISTA", "domicilio": "CAMPOS MOLUCO Y CANTEMOC S/N, AMPLIACION PETROLERA, DELEGACION AZCAPOTZALCO, MEXICO DF.", "colonia": "SAN ANTONIO (FRACC)", "alcaldia": "AZCAPOTZALCO" }, "geometry": { "type": "Point", "coordinates": [ -99.204103000066766, 19.481106000067658 ] } },